{
"type": "FeatureCollection",
"name": "naihealth",
"crs": { "type": "name", "properties": { "name": "urn:ogc:def:crs:OGC:1.3:CRS84" } },
"features": [
{ "type": "Feature", "properties": { "FID_1": 4323, "Facility_N": 292, "F_NAME": "AAR HOSPITAL SOUTH B", "HMIS": 0, "Province": "NAIROBI", "District": "NAIROBI", "Division": "MAKADARA", "LOCATION": "MUKURU NYAYO", "Sub_Locati": "NAIROBI SOUTH", "Spatial_Re": "WAYUMBA", "Facility_T": 5, "Agency": "PRIV", "Latitude": -1.308071, "Longitude": 36.83507, "GlobalID": "1289c1f3-ca32-4211-b2ef-d82934632dd6" }, "geometry": { "type": "Point", "coordinates": [ 36.83507, -1.308071 ] } },
{ "type": "Feature", "properties": { "FID_1": 4325, "Facility_N": 298, "F_NAME": "AGA KHAN HOSPITAL", "HMIS": 1, "Province": "NAIROBI", "District": "NAIROBI", "Division": "WESTLANDS", "LOCATION": "HIGHRIDGE", "Sub_Locati": "HIGHRIDGE", "Spatial_Re": "WAYUMBA", "Facility_T": 5, "Agency": "PRIV", "Latitude": -1.259263, "Longitude": 36.822479, "GlobalID": "f9892022-f330-4cda-af02-a9e96432add4" }, "geometry": { "type": "Point", "coordinates": [ 36.822479, -1.259263 ] } },
{ "type": "Feature", "properties": { "FID_1": 4542, "Facility_N": 642, "F_NAME": "EMMAUS CLINIC", "HMIS": 0, "Province": "NAIROBI", "District": "NAIROBI", "Division": "EMBAKASI", "LOCATION": "UMOJA", "Sub_Locati": "UMOJA", "Spatial_Re": "WAYUMBA", "Facility_T": 6, "Agency": "PRIV", "Latitude": -1.281106, "Longitude": 36.896184, "GlobalID": "3639293e-2ba7-4124-8dca-9a45a619c95d" }, "geometry": { "type": "Point", "coordinates": [ 36.896184, -1.281106 ] } },
{ "type": "Feature", "properties": { "FID_1": 4544, "Facility_N": 664, "F_NAME": "GURU NANAK HOSPITAL", "HMIS": 152, "Province": "NAIROBI", "District": "NAIROBI", "Division": "CENTRAL", "LOCATION": "NGARA", "Sub_Locati": "NGARA EAST", "Spatial_Re": "WAYUMBA", "Facility_T": 5, "Agency": "PRIV", "Latitude": -1.26748, "Longitude": 36.831229, "GlobalID": "e4026650-e575-4c67-808e-16d20253b3b8" }, "geometry": { "type": "Point", "coordinates": [ 36.831229, -1.26748 ] } },
{ "type": "Feature", "properties": { "FID_1": 4547, "Facility_N": 670, "F_NAME": "HURLINGHAM HOSPITAL", "HMIS": 0, "Province": "NAIROBI", "District": "NAIROBI", "Division": "WESTLANDS", "LOCATION": "KILIMANI", "Sub_Locati": "KILIMANI(NAIROBI)", "Spatial_Re": "WAYUMBA", "Facility_T": 5, "Agency": "PRIV", "Latitude": -1.291617, "Longitude": 36.795248, "GlobalID": "f20be4be-7c92-473a-a1b9-7c2825ac945e" }, "geometry": { "type": "Point", "coordinates": [ 36.795248, -1.291617 ] } },
{ "type": "Feature", "properties": { "FID_1": 4550, "Facility_N": 675, "F_NAME": "ISLAMIC REPUBLIC OF IRAN MEDICAL CLINIC", "HMIS": 0, "Province": "NAIROBI", "District": "NAIROBI", "Division": "WESTLANDS", "LOCATION": "KILIMANI", "Sub_Locati": "KILIMANI(NAIROBI)", "Spatial_Re": "WAYUMBA", "Facility_T": 6, "Agency": "PRIV", "Latitude": -1.297148, "Longitude": 36.782066, "GlobalID": "6678d7fe-50f2-4589-aa3a-a6daa9ba758d" }, "geometry": { "type": "Point", "coordinates": [ 36.782066, -1.297148 ] } },
{ "type": "Feature", "properties": { "FID_1": 4552, "Facility_N": 691, "F_NAME": "KANGEMI GICHAGI DISPENSARY", "HMIS": 0, "Province": "NAIROBI", "District": "NAIROBI", "Division": "WESTLANDS", "LOCATION": "KANGEMI", "Sub_Locati": "GICHAGI", "Spatial_Re": "DISTRICT ESTIMATES", "Facility_T": 4, "Agency": "PRIV", "Latitude": -1.27111, "Longitude": 36.75124, "GlobalID": "bf99de6d-4396-48e6-9b81-c8f031c5a2c0" }, "geometry": { "type": "Point", "coordinates": [ 36.75124, -1.27111 ] } },
{ "type": "Feature", "properties": { "FID_1": 4556, "Facility_N": 696, "F_NAME": "KAYOLE HOSPITAL", "HMIS": 0, "Province": "NAIROBI", "District": "NAIROBI", "Division": "EMBAKASI", "LOCATION": "KAYOLE", "Sub_Locati": "KAYOLE", "Spatial_Re": "WAYUMBA", "Facility_T": 5, "Agency": "PRIV", "Latitude": -1.267542, "Longitude": 36.91743, "GlobalID": "620fe324-0183-44c4-9f1c-2b5642ebb4a2" }, "geometry": { "type": "Point", "coordinates": [ 36.91743, -1.267542 ] } },
{ "type": "Feature", "properties": { "FID_1": 4560, "Facility_N": 714, "F_NAME": "M P SHAH HOSPITAL", "HMIS": 158, "Province": "NAIROBI", "District": "NAIROBI", "Division": "WESTLANDS", "LOCATION": "HIGHRIDGE", "Sub_Locati": "HIGHRIDGE", "Spatial_Re": "WAYUMBA", "Facility_T": 5, "Agency": "PRIV", "Latitude": -1.262455, "Longitude": 36.812221, "GlobalID": "eb6343cd-6e31-41a0-9c5a-032baf7d2fcc" }, "geometry": { "type": "Point", "coordinates": [ 36.812221, -1.262455 ] } },
{ "type": "Feature", "properties": { "FID_1": 4562, "Facility_N": 720, "F_NAME": "MASABA HOSPITAL", "HMIS": 180, "Province": "NAIROBI", "District": "NAIROBI", "Division": "WESTLANDS", "LOCATION": "KILIMANI", "Sub_Locati": "KILIMANI(NAIROBI)", "Spatial_Re": "WAYUMBA", "Facility_T": 5, "Agency": "PRIV", "Latitude": -1.296875, "Longitude": 36.780809, "GlobalID": "5dc73b06-b527-49a1-975c-9269b9e32eac" }, "geometry": { "type": "Point", "coordinates": [ 36.780809, -1.296875 ] } },
{ "type": "Feature", "properties": { "FID_1": 4565, "Facility_N": 735, "F_NAME": "METROPOLITAN HOSPITAL", "HMIS": 0, "Province": "NAIROBI", "District": "NAIROBI", "Division": "MAKADARA", "LOCATION": "MAKADARA", "Sub_Locati": "HARAMBEE", "Spatial_Re": "WAYUMBA", "Facility_T": 5, "Agency": "PRIV", "Latitude": -1.285211, "Longitude": 36.874092, "GlobalID": "5657015b-fbc1-46ee-8608-eae727327030" }, "geometry": { "type": "Point", "coordinates": [ 36.874092, -1.285211 ] } },
{ "type": "Feature", "properties": { "FID_1": 4568, "Facility_N": 754, "F_NAME": "NAIROBI HOSPITAL", "HMIS": 161, "Province": "NAIROBI", "District": "NAIROBI", "Division": "WESTLANDS", "LOCATION": "KILIMANI", "Sub_Locati": "KILIMANI(NAIROBI)", "Spatial_Re": "WAYUMBA", "Facility_T": 5, "Agency": "PRIV", "Latitude": -1.294238, "Longitude": 36.803877, "GlobalID": "08aec204-bc17-4e65-801a-1e4cf13afbdd" }, "geometry": { "type": "Point", "coordinates": [ 36.803877, -1.294238 ] } },
{ "type": "Feature", "properties": { "FID_1": 4570, "Facility_N": 756, "F_NAME": "NAIROBI WEST HOSPITAL", "HMIS": 0, "Province": "NAIROBI", "District": "NAIROBI", "Division": "KIBERA", "LOCATION": "NAIROBI WEST", "Sub_Locati": "NAIROBI WEST", "Spatial_Re": "WAYUMBA", "Facility_T": 5, "Agency": "PRIV", "Latitude": -1.304238, "Longitude": 36.825058, "GlobalID": "dab884aa-e26c-4d77-8f88-44e313f3ac4e" }, "geometry": { "type": "Point", "coordinates": [ 36.825058, -1.304238 ] } },
{ "type": "Feature", "properties": { "FID_1": 4573, "Facility_N": 781, "F_NAME": "PANGANI CRESCENT MEDICAL AID CLINIC", "HMIS": 2675, "Province": "NAIROBI", "District": "NAIROBI", "Division": "CENTRAL", "LOCATION": "KARIOKOR", "Sub_Locati": "PANGANI", "Spatial_Re": "WAYUMBA", "Facility_T": 6, "Agency": "PRIV", "Latitude": -1.263462, "Longitude": 36.83721, "GlobalID": "2ef4c5e5-95c8-4e6f-be70-cdf1e13fc0eb" }, "geometry": { "type": "Point", "coordinates": [ 36.83721, -1.263462 ] } },
{ "type": "Feature", "properties": { "FID_1": 4576, "Facility_N": 825, "F_NAME": "ST. JAMES HOSPITAL", "HMIS": 0, "Province": "NAIROBI", "District": "NAIROBI", "Division": "EMBAKASI", "LOCATION": "MUKURU KWA NJENGA", "Sub_Locati": "IMARA DAIMA", "Spatial_Re": "WAYUMBA", "Facility_T": 5, "Agency": "PRIV", "Latitude": -1.320719, "Longitude": 36.844222, "GlobalID": "5bdce4c3-f92c-492e-aa88-e7dff59d8c49" }, "geometry": { "type": "Point", "coordinates": [ 36.844222, -1.320719 ] } },
{ "type": "Feature", "properties": { "FID_1": 4580, "Facility_N": 828, "F_NAME": "ST. MARY'S MEDICAL DISP", "HMIS": 2689, "Province": "NAIROBI", "District": "NAIROBI", "Division": "EMBAKASI", "LOCATION": "KAYOLE", "Sub_Locati": "KAYOLE", "Spatial_Re": "WAYUMBA", "Facility_T": 4, "Agency": "PRIV", "Latitude": -1.273841, "Longitude": 36.91358, "GlobalID": "6890f4d5-632b-42bb-940b-ed86e7cc7c48" }, "geometry": { "type": "Point", "coordinates": [ 36.91358, -1.273841 ] } },
{ "type": "Feature", "properties": { "FID_1": 4583, "Facility_N": 833, "F_NAME": "ST. THOMAS MEDICAL HEALTH SERVICES", "HMIS": 0, "Province": "NAIROBI", "District": "NAIROBI", "Division": "EMBAKASI", "LOCATION": "UMOJA", "Sub_Locati": "UMOJA", "Spatial_Re": "WAYUMBA", "Facility_T": 6, "Agency": "PRIV", "Latitude": -1.285351, "Longitude": 36.890638, "GlobalID": "65c482f6-6a05-4c7d-95ce-3b6d80446e55" }, "geometry": { "type": "Point", "coordinates": [ 36.890638, -1.285351 ] } },
{ "type": "Feature", "properties": { "FID_1": 4586, "Facility_N": 834, "F_NAME": "ST. VERONICA HEALTH SERVICES & LABORATORY", "HMIS": 2692, "Province": "NAIROBI", "District": "NAIROBI", "Division": "PUMWANI", "LOCATION": "BAHATI", "Sub_Locati": "UHURU", "Spatial_Re": "WAYUMBA", "Facility_T": 6, "Agency": "PRIV", "Latitude": -1.269265, "Longitude": 36.879288, "GlobalID": "573af240-7bd9-49fe-9ee4-7c31f3017c15" }, "geometry": { "type": "Point", "coordinates": [ 36.879288, -1.269265 ] } },
{ "type": "Feature", "properties": { "FID_1": 4589, "Facility_N": 863, "F_NAME": "VICTORY CENTRAL MEDICAL CLINIC", "HMIS": 0, "Province": "NAIROBI", "District": "NAIROBI", "Division": "EMBAKASI", "LOCATION": "UMOJA", "Sub_Locati": "UMOJA", "Spatial_Re": "WAYUMBA", "Facility_T": 6, "Agency": "PRIV", "Latitude": -1.276054, "Longitude": 36.888094, "GlobalID": "a2fbd407-9e41-472d-afa3-41b6618a6ce5" }, "geometry": { "type": "Point", "coordinates": [ 36.888094, -1.276054 ] } },
{ "type": "Feature", "properties": { "FID_1": 4593, "Facility_N": 872, "F_NAME": "WESTLANDS COTTAGE HOSPITAL", "HMIS": 164, "Province": "NAIROBI", "District": "NAIROBI", "Division": "WESTLANDS", "LOCATION": "LAVINGTON", "Sub_Locati": "MUTHANGARI", "Spatial_Re": "WAYUMBA", "Facility_T": 5, "Agency": "PRIV", "Latitude": -1.262842, "Longitude": 36.788914, "GlobalID": "d8dc64cd-7573-4280-a8a9-3a84b26d292a" }, "geometry": { "type": "Point", "coordinates": [ 36.788914, -1.262842 ] } },
{ "type": "Feature", "properties": { "FID_1": 3312, "Facility_N": 141, "F_NAME": "BURUBURU GIRLS DISP", "HMIS": 4382, "Province": "NAIROBI", "District": "NAIROBI", "Division": "MAKADARA", "LOCATION": "MAKADARA", "Sub_Locati": "HAMZA", "Spatial_Re": "DISTRICT ESTIMATES", "Facility_T": 9, "Agency": "OTHER MIN", "Latitude": -1.29222, "Longitude": 36.87214, "GlobalID": "d9f6f809-b60d-401d-83d4-08f8f6a37cd1" }, "geometry": { "type": "Point", "coordinates": [ 36.87214, -1.29222 ] } },
{ "type": "Feature", "properties": { "FID_1": 3314, "Facility_N": 142, "F_NAME": "BURUBURU HIGH SCHOOL CLINIC", "HMIS": 0, "Province": "NAIROBI", "District": "NAIROBI", "Division": "MAKADARA", "LOCATION": "MAKADARA", "Sub_Locati": "HAMZA", "Spatial_Re": "DISTRICT ESTIMATES", "Facility_T": 9, "Agency": "OTHER MIN", "Latitude": -1.29341, "Longitude": 36.88111, "GlobalID": "ca583cb9-3102-42d5-822f-e4a72f0230ee" }, "geometry": { "type": "Point", "coordinates": [ 36.88111, -1.29341 ] } },
{ "type": "Feature", "properties": { "FID_1": 3316, "Facility_N": 143, "F_NAME": "C. B. K. STAFF CLINIC", "HMIS": 7, "Province": "NAIROBI", "District": "NAIROBI", "Division": "MAKADARA", "LOCATION": "VIWANDANI", "Sub_Locati": "LANDI MAWE", "Spatial_Re": "DISTRICT ESTIMATES", "Facility_T": 9, "Agency": "OTHER MIN", "Latitude": -1.29311, "Longitude": 36.82241, "GlobalID": "984898f3-d85b-4ced-babe-975219132452" }, "geometry": { "type": "Point", "coordinates": [ 36.82241, -1.29311 ] } },
{ "type": "Feature", "properties": { "FID_1": 3320, "Facility_N": 146, "F_NAME": "DAGORETI CHILD CLINIC", "HMIS": 0, "Province": "NAIROBI", "District": "NAIROBI", "Division": "DAGORETTI", "LOCATION": "UTHIRU\/RUTHIMITU", "Sub_Locati": "RUTHIMITU", "Spatial_Re": "GPS", "Facility_T": 9, "Agency": "OTHER MIN", "Latitude": -1.27884, "Longitude": 36.69086, "GlobalID": "821e8614-092d-4403-9a47-4db549fac6a6" }, "geometry": { "type": "Point", "coordinates": [ 36.69086, -1.27884 ] } },
{ "type": "Feature", "properties": { "FID_1": 3323, "Facility_N": 147, "F_NAME": "DAGORETTI APPROVED SCHOOL DISP", "HMIS": 62, "Province": "NAIROBI", "District": "NAIROBI", "Division": "DAGORETTI", "LOCATION": "UTHIRU\/RUTHIMITU", "Sub_Locati": "RUTHIMITU", "Spatial_Re": "GPS", "Facility_T": 9, "Agency": "MOH", "Latitude": -1.264086, "Longitude": 36.697883, "GlobalID": "77d086bf-798d-42f0-9500-1c4f018e1be5" }, "geometry": { "type": "Point", "coordinates": [ 36.697883, -1.264086 ] } },
{ "type": "Feature", "properties": { "FID_1": 3327, "Facility_N": 151, "F_NAME": "EMBAKASI GARRISON MED CENTRE", "HMIS": 2620, "Province": "NAIROBI", "District": "NAIROBI", "Division": "EMBAKASI", "LOCATION": "EMBAKASI", "Sub_Locati": "EMBAKASI(NAIROBI)", "Spatial_Re": "DISTRICT ESTIMATES", "Facility_T": 9, "Agency": "AF", "Latitude": -1.29115, "Longitude": 36.96213, "GlobalID": "f181c69e-e5ad-4cb1-b8e5-6bc9129a2228" }, "geometry": { "type": "Point", "coordinates": [ 36.96213, -1.29115 ] } },
{ "type": "Feature", "properties": { "FID_1": 3330, "Facility_N": 153, "F_NAME": "FORCES MEMORIAL HOSPITAL", "HMIS": 150, "Province": "NAIROBI", "District": "NAIROBI", "Division": "DAGORETTI", "LOCATION": "KENYATTA\/GOLF COURSE", "Sub_Locati": "GOLF COURSE", "Spatial_Re": "GPS", "Facility_T": 9, "Agency": "AF", "Latitude": -1.309481, "Longitude": 36.803344, "GlobalID": "0c02690a-b9b8-4be9-bae0-8abfeebdff76" }, "geometry": { "type": "Point", "coordinates": [ 36.803344, -1.309481 ] } },
{ "type": "Feature", "properties": { "FID_1": 3335, "Facility_N": 155, "F_NAME": "GITATHURU APPROVED SCHOOL DISP", "HMIS": 78, "Province": "NAIROBI", "District": "NAIROBI", "Division": "WESTLANDS", "LOCATION": "KITISURU", "Sub_Locati": "KITISURU", "Spatial_Re": "GPS", "Facility_T": 9, "Agency": "MOH", "Latitude": -1.23608, "Longitude": 36.73088, "GlobalID": "4931a122-8840-4101-a2bf-27fa6a16cd61" }, "geometry": { "type": "Point", "coordinates": [ 36.73088, -1.23608 ] } },
{ "type": "Feature", "properties": { "FID_1": 3338, "Facility_N": 157, "F_NAME": "GSU HEADQUARTERS HEALTH CENTRE", "HMIS": 74, "Province": "NAIROBI", "District": "NAIROBI", "Division": "KASARANI", "LOCATION": "ROYSAMBU", "Sub_Locati": "GARDEN", "Spatial_Re": "GPS", "Facility_T": 9, "Agency": "OTHER MIN", "Latitude": -1.24233, "Longitude": 36.86556, "GlobalID": "aedd6a0e-02fe-4616-9d8d-db04b2d39f0c" }, "geometry": { "type": "Point", "coordinates": [ 36.86556, -1.24233 ] } },
{ "type": "Feature", "properties": { "FID_1": 3343, "Facility_N": 158, "F_NAME": "GSU HQ MCH \/ FO CLINIC", "HMIS": 2622, "Province": "NAIROBI", "District": "NAIROBI", "Division": "KASARANI", "LOCATION": "ROYSAMBU", "Sub_Locati": "GARDEN", "Spatial_Re": "GPS", "Facility_T": 9, "Agency": "OTHER MIN", "Latitude": -1.24233, "Longitude": 36.86556, "GlobalID": "d637c061-bf67-406f-a63f-8a32f9543011" }, "geometry": { "type": "Point", "coordinates": [ 36.86556, -1.24233 ] } },
{ "type": "Feature", "properties": { "FID_1": 3348, "Facility_N": 159, "F_NAME": "GSU KIBERA HEALTH CENTRE", "HMIS": 3332, "Province": "NAIROBI", "District": "NAIROBI", "Division": "DAGORETTI", "LOCATION": "KENYATTA\/GOLF COURSE", "Sub_Locati": "GOLF COURSE", "Spatial_Re": "GPS", "Facility_T": 9, "Agency": "OTHER MIN", "Latitude": -1.30333, "Longitude": 36.78916, "GlobalID": "5c6d3c83-7c84-4196-8d63-730e24f62437" }, "geometry": { "type": "Point", "coordinates": [ 36.78916, -1.30333 ] } },
{ "type": "Feature", "properties": { "FID_1": 3352, "Facility_N": 160, "F_NAME": "GSU TRAINING HEALTH CENTRE(EMBAKASI)", "HMIS": 76, "Province": "NAIROBI", "District": "NAIROBI", "Division": "EMBAKASI", "LOCATION": "EMBAKASI", "Sub_Locati": "MIHANGO", "Spatial_Re": "GPS", "Facility_T": 9, "Agency": "OTHER MIN", "Latitude": -1.29032, "Longitude": 36.95309, "GlobalID": "97c5c9a7-df92-4db9-a9ab-337907895af2" }, "geometry": { "type": "Point", "coordinates": [ 36.95309, -1.29032 ] } },
{ "type": "Feature", "properties": { "FID_1": 3356, "Facility_N": 162, "F_NAME": "JKIA HEALTH CENTRE", "HMIS": 82, "Province": "NAIROBI", "District": "NAIROBI", "Division": "EMBAKASI", "LOCATION": "EMBAKASI", "Sub_Locati": "EMBAKASI(NAIROBI)", "Spatial_Re": "1:50000 MAPS", "Facility_T": 9, "Agency": "OTHER MIN", "Latitude": -1.32297, "Longitude": 36.91081, "GlobalID": "bd521c78-b81e-4b5d-90de-f3cf3ca6308f" }, "geometry": { "type": "Point", "coordinates": [ 36.91081, -1.32297 ] } },
{ "type": "Feature", "properties": { "FID_1": 3360, "Facility_N": 163, "F_NAME": "K P & L CO. DISP", "HMIS": 94, "Province": "NAIROBI", "District": "NAIROBI", "Division": "CENTRAL", "LOCATION": "NGARA", "Sub_Locati": "NGARA WEST", "Spatial_Re": "DISTRICT ESTIMATES", "Facility_T": 9, "Agency": "OTHER MIN", "Latitude": -1.27113, "Longitude": 36.82, "GlobalID": "91ec60e6-b8be-4068-be3a-91ee859cadd1" }, "geometry": { "type": "Point", "coordinates": [ 36.82, -1.27113 ] } },
{ "type": "Feature", "properties": { "FID_1": 3365, "Facility_N": 164, "F_NAME": "K P & T C  (NAIROBI) DISP", "HMIS": 2639, "Province": "NAIROBI", "District": "NAIROBI", "Division": "CENTRAL", "LOCATION": "STAREHE", "Sub_Locati": "CITY SQUARE", "Spatial_Re": "DISTRICT ESTIMATES", "Facility_T": 9, "Agency": "OTHER MIN", "Latitude": -1.28312, "Longitude": 36.82111, "GlobalID": "ce76db44-e3e9-4759-8f4a-ce0126adf16d" }, "geometry": { "type": "Point", "coordinates": [ 36.82111, -1.28312 ] } },
{ "type": "Feature", "properties": { "FID_1": 3368, "Facility_N": 165, "F_NAME": "K.C.C.T MBAGATHI HEALTH CENTRE", "HMIS": 105, "Province": "NAIROBI", "District": "NAIROBI", "Division": "KIBERA", "LOCATION": "MUGUMOINI", "Sub_Locati": "BOMAS", "Spatial_Re": "GPS", "Facility_T": 9, "Agency": "OTHER MIN", "Latitude": -1.37939, "Longitude": 36.76982, "GlobalID": "db713b20-7776-4e32-8552-99319cc13add" }, "geometry": { "type": "Point", "coordinates": [ 36.76982, -1.37939 ] } },
{ "type": "Feature", "properties": { "FID_1": 3372, "Facility_N": 166, "F_NAME": "KABETE APPROVED SCHOOL DISP", "HMIS": 87, "Province": "NAIROBI", "District": "NAIROBI", "Division": "WESTLANDS", "LOCATION": "KITISURU", "Sub_Locati": "KITISURU", "Spatial_Re": "GPS", "Facility_T": 9, "Agency": "MOH", "Latitude": -1.23608, "Longitude": 36.73088, "GlobalID": "dbeadf66-9d5f-46ae-9e86-a12bde2dd97c" }, "geometry": { "type": "Point", "coordinates": [ 36.73088, -1.23608 ] } },
{ "type": "Feature", "properties": { "FID_1": 3376, "Facility_N": 167, "F_NAME": "KABETE JUVENILE REMAND HOME DISP", "HMIS": 88, "Province": "NAIROBI", "District": "NAIROBI", "Division": "WESTLANDS", "LOCATION": "KITISURU", "Sub_Locati": "KITISURU", "Spatial_Re": "GPS", "Facility_T": 9, "Agency": "MOH", "Latitude": -1.23679, "Longitude": 36.73658, "GlobalID": "35d5397e-260e-42d0-a51e-ad5c436440a8" }, "geometry": { "type": "Point", "coordinates": [ 36.73658, -1.23679 ] } },
{ "type": "Feature", "properties": { "FID_1": 3379, "Facility_N": 169, "F_NAME": "KAMITI G.K. PRISON HOSPITAL", "HMIS": 156, "Province": "NAIROBI", "District": "NAIROBI", "Division": "KASARANI", "LOCATION": "KAHAWA", "Sub_Locati": "KAHAWA WEST\/JUJA K", "Spatial_Re": "GPS", "Facility_T": 9, "Agency": "MOH", "Latitude": -1.17611, "Longitude": 36.89343, "GlobalID": "3f6ac107-1691-4536-8c4f-fb45ef87578d" }, "geometry": { "type": "Point", "coordinates": [ 36.89343, -1.17611 ] } },
{ "type": "Feature", "properties": { "FID_1": 3382, "Facility_N": 171, "F_NAME": "KENYA AIR FORCE EASTLEIGH MEDICAL CENTRE", "HMIS": 0, "Province": "NAIROBI", "District": "NAIROBI", "Division": "CENTRAL", "LOCATION": "MATHARE", "Sub_Locati": "MLANGO KUBWA", "Spatial_Re": "GPS", "Facility_T": 9, "Agency": "AF", "Latitude": -1.2625, "Longitude": 36.85846, "GlobalID": "c7a1257a-8999-4f9e-afe6-16297dc87f15" }, "geometry": { "type": "Point", "coordinates": [ 36.85846, -1.2625 ] } },
{ "type": "Feature", "properties": { "FID_1": 3388, "Facility_N": 177, "F_NAME": "KENYA PIPELINE STAFF CLINIC", "HMIS": 2638, "Province": "NAIROBI", "District": "NAIROBI", "Division": "EMBAKASI", "LOCATION": "MUKURU KWA NJENGA", "Sub_Locati": "MUKURU KWA NJENGA", "Spatial_Re": "GPS", "Facility_T": 9, "Agency": "OTHER MIN", "Latitude": -1.3155, "Longitude": 36.89424, "GlobalID": "8263bb97-f2af-4931-b29c-51312e98cd55" }, "geometry": { "type": "Point", "coordinates": [ 36.89424, -1.3155 ] } },
{ "type": "Feature", "properties": { "FID_1": 3391, "Facility_N": 178, "F_NAME": "KENYATTA UNIVERSITY CLINIC", "HMIS": 95, "Province": "NAIROBI", "District": "NAIROBI", "Division": "KASARANI", "LOCATION": "KAHAWA", "Sub_Locati": "KIWANJA", "Spatial_Re": "DISTRICT ESTIMATES", "Facility_T": 9, "Agency": "OTHER MIN", "Latitude": -1.17123, "Longitude": 36.93214, "GlobalID": "441b0c43-3672-4ec5-af24-499e77e9bf1c" }, "geometry": { "type": "Point", "coordinates": [ 36.93214, -1.17123 ] } },
{ "type": "Feature", "properties": { "FID_1": 3393, "Facility_N": 181, "F_NAME": "LANGATA WOMENS PRISONS HEALTH CENTRE", "HMIS": 97, "Province": "NAIROBI", "District": "NAIROBI", "Division": "KIBERA", "LOCATION": "MUGUMOINI", "Sub_Locati": "BOMAS", "Spatial_Re": "GPS", "Facility_T": 9, "Agency": "MOH", "Latitude": -1.31862, "Longitude": 36.77503, "GlobalID": "0384a3a5-08dc-4de8-ab9b-c7542f1f9305" }, "geometry": { "type": "Point", "coordinates": [ 36.77503, -1.31862 ] } },
{ "type": "Feature", "properties": { "FID_1": 3396, "Facility_N": 182, "F_NAME": "MATHARE POLICE DEPARTMENT CLINIC", "HMIS": 104, "Province": "NAIROBI", "District": "NAIROBI", "Division": "KASARANI", "LOCATION": "ROYSAMBU", "Sub_Locati": "GARDEN", "Spatial_Re": "SUBLOC CENTROID", "Facility_T": 9, "Agency": "OTHER MIN", "Latitude": -1.256133, "Longitude": 36.849069, "GlobalID": "304e2ebc-86e6-43d6-9278-d3d21b0c75b4" }, "geometry": { "type": "Point", "coordinates": [ 36.849069, -1.256133 ] } },
{ "type": "Feature", "properties": { "FID_1": 3398, "Facility_N": 188, "F_NAME": "MOPW (SUPPLIES BRANCH) CLINIC", "HMIS": 100, "Province": "NAIROBI", "District": "NAIROBI", "Division": "MAKADARA", "LOCATION": "VIWANDANI", "Sub_Locati": "LANDI MAWE", "Spatial_Re": "GPS", "Facility_T": 9, "Agency": "OTHER MIN", "Latitude": -1.29911, "Longitude": 36.83028, "GlobalID": "21762625-b1d5-4c27-a871-177b8d726643" }, "geometry": { "type": "Point", "coordinates": [ 36.83028, -1.29911 ] } },
{ "type": "Feature", "properties": { "FID_1": 3441, "Facility_N": 190, "F_NAME": "NAIROBI JUVENILE DISP", "HMIS": 3339, "Province": "NAIROBI", "District": "NAIROBI", "Division": "KIBERA", "LOCATION": "LANGATA", "Sub_Locati": "LANGATA", "Spatial_Re": "SUBLOC CENTROID", "Facility_T": 9, "Agency": "MOH", "Latitude": -1.312203, "Longitude": 36.760619, "GlobalID": "73f6b86c-175d-4bc5-a0b2-d523975262db" }, "geometry": { "type": "Point", "coordinates": [ 36.760619, -1.312203 ] } },
{ "type": "Feature", "properties": { "FID_1": 3459, "Facility_N": 191, "F_NAME": "NAIROBI MTC CLINIC", "HMIS": 3348, "Province": "NAIROBI", "District": "NAIROBI", "Division": "KIBERA", "LOCATION": "LANGATA", "Sub_Locati": "LANGATA", "Spatial_Re": "SUBLOC CENTROID", "Facility_T": 9, "Agency": "OTHER MIN", "Latitude": -1.312203, "Longitude": 36.767332, "GlobalID": "b3c65ebd-6664-4c87-a909-93d0fa747822" }, "geometry": { "type": "Point", "coordinates": [ 36.767332, -1.312203 ] } },
{ "type": "Feature", "properties": { "FID_1": 3466, "Facility_N": 192, "F_NAME": "NAIROBI REMAND & ALLOC. DISP", "HMIS": 108, "Province": "NAIROBI", "District": "NAIROBI", "Division": "KIBERA", "LOCATION": "LANGATA", "Sub_Locati": "LANGATA", "Spatial_Re": "DISTRICT ESTIMATES", "Facility_T": 9, "Agency": "MOH", "Latitude": -1.31221, "Longitude": 36.75112, "GlobalID": "940cb42b-6766-4183-ba79-f02eb339dd7e" }, "geometry": { "type": "Point", "coordinates": [ 36.75112, -1.31221 ] } },
{ "type": "Feature", "properties": { "FID_1": 3473, "Facility_N": 193, "F_NAME": "NAIROBI WEST PRISON HEALTH CENTRE", "HMIS": 3338, "Province": "NAIROBI", "District": "NAIROBI", "Division": "KIBERA", "LOCATION": "NAIROBI WEST", "Sub_Locati": "NAIROBI WEST", "Spatial_Re": "GPS", "Facility_T": 9, "Agency": "MOH", "Latitude": -1.3112, "Longitude": 36.81505, "GlobalID": "5925294b-1384-486f-a8d4-a7ae1f369ff8" }, "geometry": { "type": "Point", "coordinates": [ 36.81505, -1.3112 ] } },
{ "type": "Feature", "properties": { "FID_1": 3478, "Facility_N": 194, "F_NAME": "NAS DISP", "HMIS": 109, "Province": "NAIROBI", "District": "NAIROBI", "Division": "EMBAKASI", "LOCATION": "EMBAKASI", "Sub_Locati": "EMBAKASI(NAIROBI)", "Spatial_Re": "DISTRICT ESTIMATES", "Facility_T": 9, "Agency": "MOH", "Latitude": -1.30212, "Longitude": 36.9401, "GlobalID": "412bb0dc-4a1f-4dc9-9a30-f1693d69d890" }, "geometry": { "type": "Point", "coordinates": [ 36.9401, -1.30212 ] } },
{ "type": "Feature", "properties": { "FID_1": 3484, "Facility_N": 195, "F_NAME": "NCPD CLINIC", "HMIS": 2668, "Province": "NAIROBI", "District": "NAIROBI", "Division": "MAKADARA", "LOCATION": "VIWANDANI", "Sub_Locati": "LANDI MAWE", "Spatial_Re": "GPS", "Facility_T": 9, "Agency": "OTHER MIN", "Latitude": -1.29457, "Longitude": 36.83461, "GlobalID": "5d8bcfda-2c91-4ac7-a0c5-c680e778b5b4" }, "geometry": { "type": "Point", "coordinates": [ 36.83461, -1.29457 ] } },
{ "type": "Feature", "properties": { "FID_1": 3490, "Facility_N": 202, "F_NAME": "RAILWAYS HEADQUARTERS CLINIC", "HMIS": 116, "Province": "NAIROBI", "District": "NAIROBI", "Division": "CENTRAL", "LOCATION": "STAREHE", "Sub_Locati": "CITY SQUARE", "Spatial_Re": "1:50000 MAPS", "Facility_T": 9, "Agency": "OTHER MIN", "Latitude": -1.29009, "Longitude": 36.82658, "GlobalID": "5ceb6c7f-3d47-4b5e-a6c2-5ceb343f0681" }, "geometry": { "type": "Point", "coordinates": [ 36.82658, -1.29009 ] } },
{ "type": "Feature", "properties": { "FID_1": 3496, "Facility_N": 203, "F_NAME": "RAILWAYS TRAINING SCHOOL CLINIC", "HMIS": 115, "Province": "NAIROBI", "District": "NAIROBI", "Division": "MAKADARA", "LOCATION": "MUKURU NYAYO", "Sub_Locati": "HAZINA", "Spatial_Re": "GPS", "Facility_T": 9, "Agency": "OTHER MIN", "Latitude": -1.31139, "Longitude": 36.84163, "GlobalID": "bc3142a9-9032-42b0-a462-6100e2bf23b3" }, "geometry": { "type": "Point", "coordinates": [ 36.84163, -1.31139 ] } },
{ "type": "Feature", "properties": { "FID_1": 3503, "Facility_N": 205, "F_NAME": "SOUTH C MOI EDUCATION CENTRE CLINIC", "HMIS": 0, "Province": "NAIROBI", "District": "NAIROBI", "Division": "KIBERA", "LOCATION": "NAIROBI WEST", "Sub_Locati": "SOUTH 'C'", "Spatial_Re": "GPS", "Facility_T": 9, "Agency": "OTHER MIN", "Latitude": -1.311003, "Longitude": 36.827595, "GlobalID": "52b64bce-3753-46f5-89f2-e819eea8d49e" }, "geometry": { "type": "Point", "coordinates": [ 36.827595, -1.311003 ] } },
{ "type": "Feature", "properties": { "FID_1": 3509, "Facility_N": 207, "F_NAME": "UNIVERSITY OF NAIROBI HEALTH SERVICES", "HMIS": 146, "Province": "NAIROBI", "District": "NAIROBI", "Division": "WESTLANDS", "LOCATION": "HIGHRIDGE", "Sub_Locati": "HIGHRIDGE", "Spatial_Re": "DISTRICT ESTIMATES", "Facility_T": 9, "Agency": "OTHER MIN", "Latitude": -1.27, "Longitude": 36.81, "GlobalID": "b9dbb98e-0406-40f1-a0bf-3ddb56c58fac" }, "geometry": { "type": "Point", "coordinates": [ 36.81, -1.27 ] } },
{ "type": "Feature", "properties": { "FID_1": 3678, "Facility_N": 212, "F_NAME": "AVENUE NURSING HOME", "HMIS": 176, "Province": "NAIROBI", "District": "NAIROBI", "Division": "WESTLANDS", "LOCATION": "HIGHRIDGE", "Sub_Locati": "HIGHRIDGE", "Spatial_Re": "WAYUMBA", "Facility_T": 7, "Agency": "PRIV", "Latitude": -1.26245, "Longitude": 36.816607, "GlobalID": "3acb7328-32b1-4df0-9fcc-197afb124f97" }, "geometry": { "type": "Point", "coordinates": [ 36.816607, -1.26245 ] } },
{ "type": "Feature", "properties": { "FID_1": 3685, "Facility_N": 215, "F_NAME": "CHEST CLINIC", "HMIS": 9, "Province": "NAIROBI", "District": "NAIROBI", "Division": "CENTRAL", "LOCATION": "STAREHE", "Sub_Locati": "CITY SQUARE", "Spatial_Re": "GPS", "Facility_T": 8, "Agency": "MOH", "Latitude": -1.28894, "Longitude": 36.82251, "GlobalID": "ece309dd-ffa4-43ba-8b39-337f2426a89a" }, "geometry": { "type": "Point", "coordinates": [ 36.82251, -1.28894 ] } },
{ "type": "Feature", "properties": { "FID_1": 3689, "Facility_N": 218, "F_NAME": "CITY NURSING HOME", "HMIS": 177, "Province": "NAIROBI", "District": "NAIROBI", "Division": "CENTRAL", "LOCATION": "STAREHE", "Sub_Locati": "CITY CENTRE", "Spatial_Re": "WAYUMBA", "Facility_T": 7, "Agency": "PRIV", "Latitude": -1.284809, "Longitude": 36.826936, "GlobalID": "dfa6517c-92eb-4e09-94b8-dae082b2025d" }, "geometry": { "type": "Point", "coordinates": [ 36.826936, -1.284809 ] } },
{ "type": "Feature", "properties": { "FID_1": 3698, "Facility_N": 219, "F_NAME": "COPTIC CHURCH NURSING HOME", "HMIS": 0, "Province": "NAIROBI", "District": "NAIROBI", "Division": "WESTLANDS", "LOCATION": "KILIMANI", "Sub_Locati": "KILIMANI(NAIROBI)", "Spatial_Re": "WAYUMBA", "Facility_T": 7, "Agency": "PRIV", "Latitude": -1.29604, "Longitude": 36.796879, "GlobalID": "1dfa2af0-45fd-4ad5-a570-c058be924942" }, "geometry": { "type": "Point", "coordinates": [ 36.796879, -1.29604 ] } },
{ "type": "Feature", "properties": { "FID_1": 3702, "Facility_N": 222, "F_NAME": "EASTLEIGH COMMUNITY CLINIC & NURSING HOME", "HMIS": 178, "Province": "NAIROBI", "District": "NAIROBI", "Division": "PUMWANI", "LOCATION": "EASTLEIGH NORTH", "Sub_Locati": "AIRBASE", "Spatial_Re": "WAYUMBA", "Facility_T": 7, "Agency": "PRIV", "Latitude": -1.269494, "Longitude": 36.849835, "GlobalID": "849f23e6-260a-4d66-98ac-43054ee87a5e" }, "geometry": { "type": "Point", "coordinates": [ 36.849835, -1.269494 ] } },
{ "type": "Feature", "properties": { "FID_1": 3708, "Facility_N": 224, "F_NAME": "EQUATOR NURSING HOME", "HMIS": 2293, "Province": "NAIROBI", "District": "NAIROBI", "Division": "KIBERA", "LOCATION": "NAIROBI WEST", "Sub_Locati": "NAIROBI WEST", "Spatial_Re": "WAYUMBA", "Facility_T": 7, "Agency": "PRIV", "Latitude": -1.305783, "Longitude": 36.823983, "GlobalID": "c8aa0284-1bfa-4623-9b7f-f4877a87f469" }, "geometry": { "type": "Point", "coordinates": [ 36.823983, -1.305783 ] } },
{ "type": "Feature", "properties": { "FID_1": 3714, "Facility_N": 225, "F_NAME": "FPAK CLINIC (EASTLEIGH)", "HMIS": 2617, "Province": "NAIROBI", "District": "NAIROBI", "Division": "PUMWANI", "LOCATION": "EASTLEIGH SOUTH", "Sub_Locati": "EASTLEIGH SOUTH", "Spatial_Re": "DISTRICT ESTIMATES", "Facility_T": 8, "Agency": "NGO", "Latitude": -1.28415, "Longitude": 36.85123, "GlobalID": "88089157-84f6-4d70-9e82-64392f48cf24" }, "geometry": { "type": "Point", "coordinates": [ 36.85123, -1.28415 ] } },
{ "type": "Feature", "properties": { "FID_1": 3720, "Facility_N": 226, "F_NAME": "FPAK CLINIC (PHOENIX)", "HMIS": 2676, "Province": "NAIROBI", "District": "NAIROBI", "Division": "PUMWANI", "LOCATION": "EASTLEIGH SOUTH", "Sub_Locati": "EASTLEIGH SOUTH", "Spatial_Re": "DISTRICT ESTIMATES", "Facility_T": 8, "Agency": "NGO", "Latitude": -1.28112, "Longitude": 36.85001, "GlobalID": "f26a13be-99ab-4c2f-bca8-f28de06061e8" }, "geometry": { "type": "Point", "coordinates": [ 36.85001, -1.28112 ] } },
{ "type": "Feature", "properties": { "FID_1": 3725, "Facility_N": 232, "F_NAME": "HURUMA MATERNITY & NURSING HOME", "HMIS": 3346, "Province": "NAIROBI", "District": "NAIROBI", "Division": "EMBAKASI", "LOCATION": "UMOJA", "Sub_Locati": "SAVANNAH", "Spatial_Re": "WAYUMBA", "Facility_T": 7, "Agency": "PRIV", "Latitude": -1.277166, "Longitude": 36.909975, "GlobalID": "ce6f0f56-4551-4deb-8168-d25309e6c9c2" }, "geometry": { "type": "Point", "coordinates": [ 36.909975, -1.277166 ] } },
{ "type": "Feature", "properties": { "FID_1": 3728, "Facility_N": 235, "F_NAME": "JAMAA MATERNITY HOSPITAL", "HMIS": 155, "Province": "NAIROBI", "District": "NAIROBI", "Division": "PUMWANI", "LOCATION": "BAHATI", "Sub_Locati": "UHURU", "Spatial_Re": "WAYUMBA", "Facility_T": 7, "Agency": "PRIV", "Latitude": -1.277577, "Longitude": 36.871434, "GlobalID": "d36d87c2-8236-4976-b2be-7f6d65ff3466" }, "geometry": { "type": "Point", "coordinates": [ 36.871434, -1.277577 ] } },
{ "type": "Feature", "properties": { "FID_1": 3734, "Facility_N": 237, "F_NAME": "KAHAWA MAT. UNIT", "HMIS": 167, "Province": "NAIROBI", "District": "NAIROBI", "Division": "KASARANI", "LOCATION": "KAHAWA", "Sub_Locati": "KONGO SOWETO", "Spatial_Re": "GPS", "Facility_T": 7, "Agency": "LA", "Latitude": -1.18716, "Longitude": 36.91278, "GlobalID": "157db8e4-db7e-4e76-a0a6-bf7984c0ae58" }, "geometry": { "type": "Point", "coordinates": [ 36.91278, -1.18716 ] } },
{ "type": "Feature", "properties": { "FID_1": 3741, "Facility_N": 239, "F_NAME": "KIBERA FP & MATERNITY HOME", "HMIS": 2643, "Province": "NAIROBI", "District": "NAIROBI", "Division": "KIBERA", "LOCATION": "KIBERA", "Sub_Locati": "MAKINA", "Spatial_Re": "GPS", "Facility_T": 7, "Agency": "MOH", "Latitude": -1.30566, "Longitude": 36.78454, "GlobalID": "3863a4eb-34f0-4f5d-952e-a19c8435d336" }, "geometry": { "type": "Point", "coordinates": [ 36.78454, -1.30566 ] } },
{ "type": "Feature", "properties": { "FID_1": 3751, "Facility_N": 247, "F_NAME": "MARIA NURSING HOME", "HMIS": 0, "Province": "NAIROBI", "District": "NAIROBI", "Division": "EMBAKASI", "LOCATION": "KAYOLE", "Sub_Locati": "KAYOLE", "Spatial_Re": "WAYUMBA", "Facility_T": 7, "Agency": "PRIV", "Latitude": -1.272263, "Longitude": 36.918441, "GlobalID": "a645f4ef-1b2a-478f-886d-b4604a5e91e8" }, "geometry": { "type": "Point", "coordinates": [ 36.918441, -1.272263 ] } },
{ "type": "Feature", "properties": { "FID_1": 3757, "Facility_N": 249, "F_NAME": "MARIE STOPES NURSING HOME", "HMIS": 0, "Province": "NAIROBI", "District": "NAIROBI", "Division": "CENTRAL", "LOCATION": "KARIOKOR", "Sub_Locati": "PANGANI", "Spatial_Re": "WAYUMBA", "Facility_T": 7, "Agency": "NGO", "Latitude": -1.263849, "Longitude": 36.835889, "GlobalID": "f625f803-a00a-48d4-99d7-e5405c80853e" }, "geometry": { "type": "Point", "coordinates": [ 36.835889, -1.263849 ] } },
{ "type": "Feature", "properties": { "FID_1": 3763, "Facility_N": 263, "F_NAME": "NAIROBI WEST NURSING HOME", "HMIS": 181, "Province": "NAIROBI", "District": "NAIROBI", "Division": "KIBERA", "LOCATION": "NAIROBI WEST", "Sub_Locati": "NAIROBI WEST", "Spatial_Re": "WAYUMBA", "Facility_T": 7, "Agency": "PRIV", "Latitude": -1.306259, "Longitude": 36.820049, "GlobalID": "67c2b5a0-1ffa-4e1a-a9f1-3fec742e3f18" }, "geometry": { "type": "Point", "coordinates": [ 36.820049, -1.306259 ] } },
{ "type": "Feature", "properties": { "FID_1": 3768, "Facility_N": 264, "F_NAME": "NATIONAL SPINAL INJURY HOSP.", "HMIS": 163, "Province": "NAIROBI", "District": "NAIROBI", "Division": "WESTLANDS", "LOCATION": "KILIMANI", "Sub_Locati": "KILIMANI(NAIROBI)", "Spatial_Re": "DDP", "Facility_T": 8, "Agency": "MOH", "Latitude": -1.28872, "Longitude": 36.7833, "GlobalID": "6788e00e-3fc9-4583-b0e1-fdf2f8cba665" }, "geometry": { "type": "Point", "coordinates": [ 36.7833, -1.28872 ] } },
{ "type": "Feature", "properties": { "FID_1": 3774, "Facility_N": 270, "F_NAME": "PARK ROAD NURSING HOME", "HMIS": 182, "Province": "NAIROBI", "District": "NAIROBI", "Division": "CENTRAL", "LOCATION": "NGARA", "Sub_Locati": "NGARA EAST", "Spatial_Re": "WAYUMBA", "Facility_T": 7, "Agency": "PRIV", "Latitude": -1.270708, "Longitude": 36.831304, "GlobalID": "55d4aff9-c23b-45e9-bd58-fc32f83a1ac8" }, "geometry": { "type": "Point", "coordinates": [ 36.831304, -1.270708 ] } },
{ "type": "Feature", "properties": { "FID_1": 3778, "Facility_N": 272, "F_NAME": "PRIME CARE NURSING HOME", "HMIS": 0, "Province": "NAIROBI", "District": "NAIROBI", "Division": "EMBAKASI", "LOCATION": "UMOJA", "Sub_Locati": "UMOJA", "Spatial_Re": "WAYUMBA", "Facility_T": 7, "Agency": "PRIV", "Latitude": -1.287231, "Longitude": 36.890124, "GlobalID": "06959c51-063c-4f13-b9fa-b9d59f0365bb" }, "geometry": { "type": "Point", "coordinates": [ 36.890124, -1.287231 ] } },
{ "type": "Feature", "properties": { "FID_1": 3783, "Facility_N": 273, "F_NAME": "PUMWANI MATERNITY HOSPITAL", "HMIS": 162, "Province": "NAIROBI", "District": "NAIROBI", "Division": "PUMWANI", "LOCATION": "PUMWANI", "Sub_Locati": "MAJENGO(NAIROBI)", "Spatial_Re": "GPS", "Facility_T": 7, "Agency": "LA", "Latitude": -1.278495, "Longitude": 36.844846, "GlobalID": "124d8337-e678-4eb6-b111-f31e69d6a1a5" }, "geometry": { "type": "Point", "coordinates": [ 36.844846, -1.278495 ] } },
{ "type": "Feature", "properties": { "FID_1": 3788, "Facility_N": 274, "F_NAME": "RADIANT HEALTH NURSING HOME", "HMIS": 183, "Province": "NAIROBI", "District": "NAIROBI", "Division": "CENTRAL", "LOCATION": "KARIOKOR", "Sub_Locati": "PANGANI", "Spatial_Re": "WAYUMBA", "Facility_T": 7, "Agency": "PRIV", "Latitude": -1.267894, "Longitude": 36.839568, "GlobalID": "c18f3053-2bb1-4241-8ac8-07c04d81af01" }, "geometry": { "type": "Point", "coordinates": [ 36.839568, -1.267894 ] } },
{ "type": "Feature", "properties": { "FID_1": 3795, "Facility_N": 280, "F_NAME": "SPECIAL TREATMENT (STAFF CLINIC)", "HMIS": 52, "Province": "NAIROBI", "District": "NAIROBI", "Division": "CENTRAL", "LOCATION": "STAREHE", "Sub_Locati": "CITY CENTRE", "Spatial_Re": "GPS", "Facility_T": 8, "Agency": "LA", "Latitude": -1.28001, "Longitude": 36.82299, "GlobalID": "88229179-d2f2-491e-8e1c-d43ae1b315ee" }, "geometry": { "type": "Point", "coordinates": [ 36.82299, -1.28001 ] } },
{ "type": "Feature", "properties": { "FID_1": 3802, "Facility_N": 281, "F_NAME": "ST. ANNES MATERNITY", "HMIS": 2686, "Province": "NAIROBI", "District": "NAIROBI", "Division": "EMBAKASI", "LOCATION": "KAYOLE", "Sub_Locati": "KAYOLE", "Spatial_Re": "WAYUMBA", "Facility_T": 7, "Agency": "PRIV", "Latitude": -1.271791, "Longitude": 36.91678, "GlobalID": "de201f26-f3b4-4948-a144-1f4baa2f60f6" }, "geometry": { "type": "Point", "coordinates": [ 36.91678, -1.271791 ] } },
{ "type": "Feature", "properties": { "FID_1": 3807, "Facility_N": 286, "F_NAME": "THE NAIROBI HOSPICE", "HMIS": 0, "Province": "NAIROBI", "District": "NAIROBI", "Division": "DAGORETTI", "LOCATION": "KENYATTA\/GOLF COURSE", "Sub_Locati": "KENYATTA", "Spatial_Re": "DISTRICT ESTIMATES", "Facility_T": 8, "Agency": "MOH", "Latitude": -1.30121, "Longitude": 36.80512, "GlobalID": "2048ee2a-300e-42d1-9f9b-effe233c2d8f" }, "geometry": { "type": "Point", "coordinates": [ 36.80512, -1.30121 ] } },
{ "type": "Feature", "properties": { "FID_1": 3813, "Facility_N": 288, "F_NAME": "UMOJA MEDICAL AND NURSING HOME (CLINIC)", "HMIS": 2696, "Province": "NAIROBI", "District": "NAIROBI", "Division": "EMBAKASI", "LOCATION": "UMOJA", "Sub_Locati": "UMOJA", "Spatial_Re": "WAYUMBA", "Facility_T": 7, "Agency": "PRIV", "Latitude": -1.277871, "Longitude": 36.888084, "GlobalID": "1a22048c-d5b8-49b2-aef9-234e61545d8a" }, "geometry": { "type": "Point", "coordinates": [ 36.888084, -1.277871 ] } },
{ "type": "Feature", "properties": { "FID_1": 3820, "Facility_N": 290, "F_NAME": "WESTLANDS MAT. UNIT", "HMIS": 172, "Province": "NAIROBI", "District": "NAIROBI", "Division": "WESTLANDS", "LOCATION": "PARKLANDS", "Sub_Locati": "UPPER PARKLANDS", "Spatial_Re": "GPS", "Facility_T": 7, "Agency": "LA", "Latitude": -1.260665, "Longitude": 36.801751, "GlobalID": "15ada79c-5e0f-479b-abf5-0439e28bb567" }, "geometry": { "type": "Point", "coordinates": [ 36.801751, -1.260665 ] } },
{ "type": "Feature", "properties": { "FID_1": 1004, "Facility_N": 107, "F_NAME": "PUMWANI DISP", "HMIS": 47, "Province": "NAIROBI", "District": "NAIROBI", "Division": "PUMWANI", "LOCATION": "EASTLEIGH NORTH", "Sub_Locati": "EASTLEIGH NORTH", "Spatial_Re": "GPS", "Facility_T": 4, "Agency": "LA", "Latitude": -1.27777, "Longitude": 36.84565, "GlobalID": "0b4fbde6-76ca-4ad1-90ba-ec5ddba776fc" }, "geometry": { "type": "Point", "coordinates": [ 36.84565, -1.27777 ] } },
{ "type": "Feature", "properties": { "FID_1": 1006, "Facility_N": 109, "F_NAME": "RHODES AVENUE & CHEST & T. HEALTH CENTRE", "HMIS": 48, "Province": "NAIROBI", "District": "NAIROBI", "Division": "CENTRAL", "LOCATION": "STAREHE", "Sub_Locati": "CITY SQUARE", "Spatial_Re": "GPS", "Facility_T": 3, "Agency": "LA", "Latitude": -1.28894, "Longitude": 36.82251, "GlobalID": "f8d5cb83-9e70-49d7-9c67-1cc81acfe3f8" }, "geometry": { "type": "Point", "coordinates": [ 36.82251, -1.28894 ] } },
{ "type": "Feature", "properties": { "FID_1": 1010, "Facility_N": 110, "F_NAME": "RIRUTA CATHOLIC DISP", "HMIS": 117, "Province": "NAIROBI", "District": "NAIROBI", "Division": "DAGORETTI", "LOCATION": "KAWANGWARE", "Sub_Locati": "KAWANGWARE", "Spatial_Re": "1:50000 MAPS", "Facility_T": 4, "Agency": "MISS", "Latitude": -1.27883, "Longitude": 36.73649, "GlobalID": "eeb65be9-eb98-4112-a46b-db0cb4922be3" }, "geometry": { "type": "Point", "coordinates": [ 36.73649, -1.27883 ] } },
{ "type": "Feature", "properties": { "FID_1": 1013, "Facility_N": 111, "F_NAME": "RIRUTA HEALTH CENTRE", "HMIS": 144, "Province": "NAIROBI", "District": "NAIROBI", "Division": "DAGORETTI", "LOCATION": "KAWANGWARE", "Sub_Locati": "KAWANGWARE", "Spatial_Re": "GPS", "Facility_T": 3, "Agency": "LA", "Latitude": -1.28405, "Longitude": 36.74052, "GlobalID": "e8631a64-5061-4df5-a5ca-b2a4cc276434" }, "geometry": { "type": "Point", "coordinates": [ 36.74052, -1.28405 ] } },
{ "type": "Feature", "properties": { "FID_1": 1015, "Facility_N": 115, "F_NAME": "SHAURI MOYO DISP", "HMIS": 51, "Province": "NAIROBI", "District": "NAIROBI", "Division": "PUMWANI", "LOCATION": "KAMUKUNJI", "Sub_Locati": "SHAURI MOYO", "Spatial_Re": "GPS", "Facility_T": 4, "Agency": "LA", "Latitude": -1.28729, "Longitude": 36.84511, "GlobalID": "08196210-a9f1-47e3-a90c-a3093a653ea3" }, "geometry": { "type": "Point", "coordinates": [ 36.84511, -1.28729 ] } },
{ "type": "Feature", "properties": { "FID_1": 1018, "Facility_N": 116, "F_NAME": "SHAURI MOYO SDA DISP NAIROBI", "HMIS": 120, "Province": "NAIROBI", "District": "NAIROBI", "Division": "PUMWANI", "LOCATION": "KAMUKUNJI", "Sub_Locati": "SHAURI MOYO", "Spatial_Re": "DISTRICT ESTIMATES", "Facility_T": 4, "Agency": "MISS", "Latitude": -1.29, "Longitude": 36.85, "GlobalID": "7543f0c1-994a-45df-9017-48c174e0efb5" }, "geometry": { "type": "Point", "coordinates": [ 36.85, -1.29 ] } },
{ "type": "Feature", "properties": { "FID_1": 1021, "Facility_N": 118, "F_NAME": "SOWETO\/KAYOLE DISP", "HMIS": 3352, "Province": "NAIROBI", "District": "NAIROBI", "Division": "EMBAKASI", "LOCATION": "KAYOLE", "Sub_Locati": "KAYOLE", "Spatial_Re": "GPS", "Facility_T": 4, "Agency": "LA", "Latitude": -1.26916, "Longitude": 36.91808, "GlobalID": "be27ac03-8510-47cc-8311-2cb2c0ebed2c" }, "geometry": { "type": "Point", "coordinates": [ 36.91808, -1.26916 ] } },
{ "type": "Feature", "properties": { "FID_1": 1023, "Facility_N": 119, "F_NAME": "SPECIAL STD DISP", "HMIS": 122, "Province": "NAIROBI", "District": "NAIROBI", "Division": "CENTRAL", "LOCATION": "STAREHE", "Sub_Locati": "CITY CENTRE", "Spatial_Re": "GPS", "Facility_T": 4, "Agency": "MOH", "Latitude": -1.27904, "Longitude": 36.82471, "GlobalID": "6c12e194-b5b5-42a7-ba7f-57abc5b966ff" }, "geometry": { "type": "Point", "coordinates": [ 36.82471, -1.27904 ] } },
{ "type": "Feature", "properties": { "FID_1": 1027, "Facility_N": 124, "F_NAME": "STATE HOUSE DISP", "HMIS": 124, "Province": "NAIROBI", "District": "NAIROBI", "Division": "WESTLANDS", "LOCATION": "KILIMANI", "Sub_Locati": "KILIMANI(NAIROBI)", "Spatial_Re": "GPS", "Facility_T": 4, "Agency": "MOH", "Latitude": -1.28435, "Longitude": 36.79915, "GlobalID": "b9fe4141-d8e3-4c79-adf5-80b7f39c13a7" }, "geometry": { "type": "Point", "coordinates": [ 36.79915, -1.28435 ] } },
{ "type": "Feature", "properties": { "FID_1": 1029, "Facility_N": 125, "F_NAME": "STATE HOUSE ROAD DISP", "HMIS": 53, "Province": "NAIROBI", "District": "NAIROBI", "Division": "WESTLANDS", "LOCATION": "KILIMANI", "Sub_Locati": "KILIMANI(NAIROBI)", "Spatial_Re": "GPS", "Facility_T": 4, "Agency": "LA", "Latitude": -1.27623, "Longitude": 36.80337, "GlobalID": "0ca269a0-352e-497b-a92b-6fa36834943a" }, "geometry": { "type": "Point", "coordinates": [ 36.80337, -1.27623 ] } },
{ "type": "Feature", "properties": { "FID_1": 1032, "Facility_N": 126, "F_NAME": "UHURU AP CAMP DISP", "HMIS": 3333, "Province": "NAIROBI", "District": "NAIROBI", "Division": "DAGORETTI", "LOCATION": "KENYATTA\/GOLF COURSE", "Sub_Locati": "KENYATTA", "Spatial_Re": "GPS", "Facility_T": 4, "Agency": "MOH", "Latitude": -1.29582, "Longitude": 36.80617, "GlobalID": "4f8e3df3-6acd-42b8-adad-cddd6e10ed09" }, "geometry": { "type": "Point", "coordinates": [ 36.80617, -1.29582 ] } },
{ "type": "Feature", "properties": { "FID_1": 1035, "Facility_N": 127, "F_NAME": "ULINZI HOUSE MIR DISP", "HMIS": 99, "Province": "NAIROBI", "District": "NAIROBI", "Division": "WESTLANDS", "LOCATION": "KILIMANI", "Sub_Locati": "KILIMANI(NAIROBI)", "Spatial_Re": "GPS", "Facility_T": 4, "Agency": "MOH", "Latitude": -1.28994, "Longitude": 36.79868, "GlobalID": "5d1dea1b-a9ee-4919-b4f1-b844bbff01b6" }, "geometry": { "type": "Point", "coordinates": [ 36.79868, -1.28994 ] } },
{ "type": "Feature", "properties": { "FID_1": 1039, "Facility_N": 128, "F_NAME": "UMOJA HEALTH CENTRE", "HMIS": 145, "Province": "NAIROBI", "District": "NAIROBI", "Division": "EMBAKASI", "LOCATION": "UMOJA", "Sub_Locati": "UMOJA", "Spatial_Re": "GPS", "Facility_T": 3, "Agency": "LA", "Latitude": -1.27931, "Longitude": 36.88726, "GlobalID": "d5a81beb-5c50-47d7-82ec-0e99e39a18e6" }, "geometry": { "type": "Point", "coordinates": [ 36.88726, -1.27931 ] } },
{ "type": "Feature", "properties": { "FID_1": 1042, "Facility_N": 130, "F_NAME": "UTALII COLLEGE DISP", "HMIS": 2641, "Province": "NAIROBI", "District": "NAIROBI", "Division": "KASARANI", "LOCATION": "RUARAKA", "Sub_Locati": "UTALII", "Spatial_Re": "GPS", "Facility_T": 4, "Agency": "MOH", "Latitude": -1.25503, "Longitude": 36.85362, "GlobalID": "219eff62-7c10-44c1-9c01-74970753b014" }, "geometry": { "type": "Point", "coordinates": [ 36.85362, -1.25503 ] } },
{ "type": "Feature", "properties": { "FID_1": 1044, "Facility_N": 132, "F_NAME": "WAITHAKA HEALTH CENTRE", "HMIS": 147, "Province": "NAIROBI", "District": "NAIROBI", "Division": "DAGORETTI", "LOCATION": "WAITHAKA", "Sub_Locati": "WAITHAKA", "Spatial_Re": "GPS", "Facility_T": 3, "Agency": "LA", "Latitude": -1.27885, "Longitude": 36.71516, "GlobalID": "23c9fab4-03c4-49ff-b205-61a72ca42645" }, "geometry": { "type": "Point", "coordinates": [ 36.71516, -1.27885 ] } },
{ "type": "Feature", "properties": { "FID_1": 1048, "Facility_N": 133, "F_NAME": "WESTLANDS DISP", "HMIS": 54, "Province": "NAIROBI", "District": "NAIROBI", "Division": "WESTLANDS", "LOCATION": "PARKLANDS", "Sub_Locati": "UPPER PARKLANDS", "Spatial_Re": "GPS", "Facility_T": 4, "Agency": "LA", "Latitude": -1.25851, "Longitude": 36.79847, "GlobalID": "7b2c9561-427c-43cd-a59c-57f788446a13" }, "geometry": { "type": "Point", "coordinates": [ 36.79847, -1.25851 ] } },
{ "type": "Feature", "properties": { "FID_1": 1052, "Facility_N": 135, "F_NAME": "WESTLANDS HEALTH CENTRE", "HMIS": 148, "Province": "NAIROBI", "District": "NAIROBI", "Division": "WESTLANDS", "LOCATION": "PARKLANDS", "Sub_Locati": "UPPER PARKLANDS", "Spatial_Re": "GPS", "Facility_T": 3, "Agency": "LA", "Latitude": -1.260665, "Longitude": 36.801751, "GlobalID": "a2acd2b1-9cc0-42a7-8396-594ad58d6cd8" }, "geometry": { "type": "Point", "coordinates": [ 36.801751, -1.260665 ] } },
{ "type": "Feature", "properties": { "FID_1": 1056, "Facility_N": 136, "F_NAME": "WILSON AIRPORT DISP", "HMIS": 3337, "Province": "NAIROBI", "District": "NAIROBI", "Division": "KIBERA", "LOCATION": "NAIROBI WEST", "Sub_Locati": "NAIROBI WEST", "Spatial_Re": "GPS", "Facility_T": 4, "Agency": "MOH", "Latitude": -1.30921, "Longitude": 36.80738, "GlobalID": "840e75c0-25a6-4595-8fc9-64e167520c26" }, "geometry": { "type": "Point", "coordinates": [ 36.80738, -1.30921 ] } },
{ "type": "Feature", "properties": { "FID_1": 1060, "Facility_N": 137, "F_NAME": "WOODLEY DISP", "HMIS": 55, "Province": "NAIROBI", "District": "NAIROBI", "Division": "DAGORETTI", "LOCATION": "KENYATTA\/GOLF COURSE", "Sub_Locati": "WOODLEY", "Spatial_Re": "GPS", "Facility_T": 4, "Agency": "LA", "Latitude": -1.30227, "Longitude": 36.77706, "GlobalID": "2f45b447-c164-4561-8dba-5d57ff87568e" }, "geometry": { "type": "Point", "coordinates": [ 36.77706, -1.30227 ] } },
{ "type": "Feature", "properties": { "FID_1": 1502, "Facility_N": 3, "F_NAME": "APTC  EMBAKASI HEALTH CENTRE", "HMIS": 56, "Province": "NAIROBI", "District": "NAIROBI", "Division": "EMBAKASI", "LOCATION": "EMBAKASI", "Sub_Locati": "MIHANGO", "Spatial_Re": "GPS", "Facility_T": 3, "Agency": "LA", "Latitude": -1.28724, "Longitude": 36.95676, "GlobalID": "7ef49c97-3a45-40f5-bb8c-60bbb443fe87" }, "geometry": { "type": "Point", "coordinates": [ 36.95676, -1.28724 ] } },
{ "type": "Feature", "properties": { "FID_1": 1506, "Facility_N": 4, "F_NAME": "AYANY ESTATE HEALTH CENTRE", "HMIS": 2541, "Province": "NAIROBI", "District": "NAIROBI", "Division": "KIBERA", "LOCATION": "SERA NGOMBE", "Sub_Locati": "OLYMPIC", "Spatial_Re": "GPS", "Facility_T": 3, "Agency": "LA", "Latitude": -1.30508, "Longitude": 36.77192, "GlobalID": "99508c49-31d7-4e78-9c0e-c8a8ef7174c5" }, "geometry": { "type": "Point", "coordinates": [ 36.77192, -1.30508 ] } },
{ "type": "Feature", "properties": { "FID_1": 1509, "Facility_N": 5, "F_NAME": "BABA DOGO HEALTH CENTRE", "HMIS": 2542, "Province": "NAIROBI", "District": "NAIROBI", "Division": "KASARANI", "LOCATION": "KARIOBANGI", "Sub_Locati": "BABA DOGO", "Spatial_Re": "GPS", "Facility_T": 3, "Agency": "LA", "Latitude": -1.2441, "Longitude": 36.88416, "GlobalID": "723ae4db-133d-4ffa-93ee-da770ad25b60" }, "geometry": { "type": "Point", "coordinates": [ 36.88416, -1.2441 ] } },
{ "type": "Feature", "properties": { "FID_1": 1513, "Facility_N": 6, "F_NAME": "BAHATI DISP", "HMIS": 58, "Province": "NAIROBI", "District": "NAIROBI", "Division": "MAKADARA", "LOCATION": "MARINGO", "Sub_Locati": "OFAFA MARINGO", "Spatial_Re": "DISTRICT ESTIMATES", "Facility_T": 4, "Agency": "MISS", "Latitude": -1.29221, "Longitude": 36.86215, "GlobalID": "6f53f6b0-c426-4ab5-a34f-a011d5d1d1b7" }, "geometry": { "type": "Point", "coordinates": [ 36.86215, -1.29221 ] } },
{ "type": "Feature", "properties": { "FID_1": 1516, "Facility_N": 7, "F_NAME": "BAHATI HEALTH CENTRE", "HMIS": 131, "Province": "NAIROBI", "District": "NAIROBI", "Division": "PUMWANI", "LOCATION": "BAHATI", "Sub_Locati": "KIMATHI(NAIROBI)", "Spatial_Re": "GPS", "Facility_T": 3, "Agency": "LA", "Latitude": -1.286682, "Longitude": 36.861624, "GlobalID": "188d77b3-da03-4c45-9730-3c1608f9d880" }, "geometry": { "type": "Point", "coordinates": [ 36.861624, -1.286682 ] } },
{ "type": "Feature", "properties": { "FID_1": 1518, "Facility_N": 10, "F_NAME": "BORAH ROAD DISP", "HMIS": 3356, "Province": "NAIROBI", "District": "NAIROBI", "Division": "CENTRAL", "LOCATION": "NGARA", "Sub_Locati": "NGARA EAST", "Spatial_Re": "DISTRICT ESTIMATES", "Facility_T": 4, "Agency": "LA", "Latitude": -1.27123, "Longitude": 36.83112, "GlobalID": "6ac81511-b7a3-42ba-b77d-419201dc8e56" }, "geometry": { "type": "Point", "coordinates": [ 36.83112, -1.27123 ] } },
{ "type": "Feature", "properties": { "FID_1": 1521, "Facility_N": 13, "F_NAME": "CALIFORNIA HC", "HMIS": 2546, "Province": "NAIROBI", "District": "NAIROBI", "Division": "PUMWANI", "LOCATION": "EASTLEIGH SOUTH", "Sub_Locati": "EASTLEIGH SOUTH", "Spatial_Re": "DISTRICT ESTIMATES", "Facility_T": 3, "Agency": "LA", "Latitude": -1.28334, "Longitude": 36.85212, "GlobalID": "7cb83abc-cf00-4d8a-bced-b8b5d0e91121" }, "geometry": { "type": "Point", "coordinates": [ 36.85212, -1.28334 ] } },
{ "type": "Feature", "properties": { "FID_1": 1524, "Facility_N": 14, "F_NAME": "CATHOLIC DISP", "HMIS": 3341, "Province": "NAIROBI", "District": "NAIROBI", "Division": "CENTRAL", "LOCATION": "KARIOKOR", "Sub_Locati": "PANGANI", "Spatial_Re": "DISTRICT ESTIMATES", "Facility_T": 4, "Agency": "MISS", "Latitude": -1.26341, "Longitude": 36.84111, "GlobalID": "3ecdcd72-0fdc-480b-aec7-f35ddff23d96" }, "geometry": { "type": "Point", "coordinates": [ 36.84111, -1.26341 ] } },
{ "type": "Feature", "properties": { "FID_1": 1527, "Facility_N": 15, "F_NAME": "CHARLES NEW ROAD HC", "HMIS": 8, "Province": "NAIROBI", "District": "NAIROBI", "Division": "MAKADARA", "LOCATION": "MAKADARA", "Sub_Locati": "HARAMBEE", "Spatial_Re": "DISTRICT ESTIMATES", "Facility_T": 3, "Agency": "LA", "Latitude": -1.28315, "Longitude": 36.87223, "GlobalID": "30225f77-852f-4dee-8f2e-6b7a44862e77" }, "geometry": { "type": "Point", "coordinates": [ 36.87223, -1.28315 ] } },
{ "type": "Feature", "properties": { "FID_1": 1530, "Facility_N": 19, "F_NAME": "CRESCENT MEDICAL AID EASTLEIGH", "HMIS": 2615, "Province": "NAIROBI", "District": "NAIROBI", "Division": "CENTRAL", "LOCATION": "MATHARE", "Sub_Locati": "MLANGO KUBWA", "Spatial_Re": "DISTRICT ESTIMATES", "Facility_T": 4, "Agency": "MISS", "Latitude": -1.26114, "Longitude": 36.85221, "GlobalID": "03a34f26-be35-4ac7-b73a-bf41781be0ae" }, "geometry": { "type": "Point", "coordinates": [ 36.85221, -1.26114 ] } },
{ "type": "Feature", "properties": { "FID_1": 1533, "Facility_N": 20, "F_NAME": "CRESCENT MEDICAL AID MUKURU", "HMIS": 2662, "Province": "NAIROBI", "District": "NAIROBI", "Division": "EMBAKASI", "LOCATION": "MUKURU KWA NJENGA", "Sub_Locati": "MUKURU KWA NJENGA", "Spatial_Re": "DISTRICT ESTIMATES", "Facility_T": 4, "Agency": "MISS", "Latitude": -1.31415, "Longitude": 36.89223, "GlobalID": "889835cf-fdd1-4fe5-a2b3-5623730a7c12" }, "geometry": { "type": "Point", "coordinates": [ 36.89223, -1.31415 ] } },
{ "type": "Feature", "properties": { "FID_1": 1536, "Facility_N": 21, "F_NAME": "CRESENT MEDICAL AID KENYA", "HMIS": 2549, "Province": "NAIROBI", "District": "NAIROBI", "Division": "CENTRAL", "LOCATION": "STAREHE", "Sub_Locati": "CITY CENTRE", "Spatial_Re": "DISTRICT ESTIMATES", "Facility_T": 4, "Agency": "MISS", "Latitude": -1.28141, "Longitude": 36.83111, "GlobalID": "eee1a51b-6d83-42cc-809c-6b1474561fe2" }, "geometry": { "type": "Point", "coordinates": [ 36.83111, -1.28141 ] } },
{ "type": "Feature", "properties": { "FID_1": 1539, "Facility_N": 22, "F_NAME": "DANDORA 2 HEALTH CENTRE", "HMIS": 2550, "Province": "NAIROBI", "District": "NAIROBI", "Division": "EMBAKASI", "LOCATION": "DANDORA", "Sub_Locati": "DANDORA 'B'", "Spatial_Re": "GPS", "Facility_T": 3, "Agency": "LA", "Latitude": -1.24474, "Longitude": 36.90223, "GlobalID": "16fd1618-f09d-4dd4-b5ee-e26cc3fbbb9c" }, "geometry": { "type": "Point", "coordinates": [ 36.90223, -1.24474 ] } },
{ "type": "Feature", "properties": { "FID_1": 1543, "Facility_N": 23, "F_NAME": "DANDORA HEALTH CENTRE", "HMIS": 132, "Province": "NAIROBI", "District": "NAIROBI", "Division": "EMBAKASI", "LOCATION": "DANDORA", "Sub_Locati": "DANDORA 'A'", "Spatial_Re": "GPS", "Facility_T": 3, "Agency": "LA", "Latitude": -1.25761, "Longitude": 36.88775, "GlobalID": "0367f687-5707-400d-ada1-40744209b593" }, "geometry": { "type": "Point", "coordinates": [ 36.88775, -1.25761 ] } },
{ "type": "Feature", "properties": { "FID_1": 1546, "Facility_N": 26, "F_NAME": "EASTLEIGH HEALTH CENTRE", "HMIS": 12, "Province": "NAIROBI", "District": "NAIROBI", "Division": "PUMWANI", "LOCATION": "EASTLEIGH NORTH", "Sub_Locati": "AIRBASE", "Spatial_Re": "GPS", "Facility_T": 3, "Agency": "LA", "Latitude": -1.26869, "Longitude": 36.85029, "GlobalID": "eae9dbe1-0356-417f-b0dc-70126ad92f46" }, "geometry": { "type": "Point", "coordinates": [ 36.85029, -1.26869 ] } },
{ "type": "Feature", "properties": { "FID_1": 1549, "Facility_N": 27, "F_NAME": "EASTLEIGH LINES HC", "HMIS": 13, "Province": "NAIROBI", "District": "NAIROBI", "Division": "PUMWANI", "LOCATION": "EASTLEIGH NORTH", "Sub_Locati": "AIRBASE", "Spatial_Re": "DISTRICT ESTIMATES", "Facility_T": 3, "Agency": "LA", "Latitude": -1.27223, "Longitude": 36.85121, "GlobalID": "c4b48c49-47c4-4308-bef9-18e44cbdc83b" }, "geometry": { "type": "Point", "coordinates": [ 36.85121, -1.27223 ] } },
{ "type": "Feature", "properties": { "FID_1": 1552, "Facility_N": 30, "F_NAME": "EMBAKASI DISP", "HMIS": 15, "Province": "NAIROBI", "District": "NAIROBI", "Division": "EMBAKASI", "LOCATION": "EMBAKASI", "Sub_Locati": "EMBAKASI(NAIROBI)", "Spatial_Re": "GPS", "Facility_T": 4, "Agency": "LA", "Latitude": -1.30795, "Longitude": 36.91262, "GlobalID": "aee550b1-1797-43d9-bbfa-4b5ba7a68fca" }, "geometry": { "type": "Point", "coordinates": [ 36.91262, -1.30795 ] } },
{ "type": "Feature", "properties": { "FID_1": 1555, "Facility_N": 33, "F_NAME": "GETRUDES GARDENS CHILDREN'S HOSPITAL", "HMIS": 151, "Province": "NAIROBI", "District": "NAIROBI", "Division": "WESTLANDS", "LOCATION": "HIGHRIDGE", "Sub_Locati": "MUTHAIGA", "Spatial_Re": "WAYUMBA", "Facility_T": 1, "Agency": "MISS", "Latitude": -1.253175, "Longitude": 36.830249, "GlobalID": "39332440-88ea-4b6f-920c-a3c458f45653" }, "geometry": { "type": "Point", "coordinates": [ 36.830249, -1.253175 ] } },
{ "type": "Feature", "properties": { "FID_1": 1559, "Facility_N": 34, "F_NAME": "HIGHRIDGE HC", "HMIS": 17, "Province": "NAIROBI", "District": "NAIROBI", "Division": "WESTLANDS", "LOCATION": "HIGHRIDGE", "Sub_Locati": "HIGHRIDGE", "Spatial_Re": "GPS", "Facility_T": 3, "Agency": "LA", "Latitude": -1.25736, "Longitude": 36.81763, "GlobalID": "842db467-9898-492c-abab-ae6e696249d4" }, "geometry": { "type": "Point", "coordinates": [ 36.81763, -1.25736 ] } },
{ "type": "Feature", "properties": { "FID_1": 1562, "Facility_N": 35, "F_NAME": "HONO CRESCENT HC", "HMIS": 18, "Province": "NAIROBI", "District": "NAIROBI", "Division": "PUMWANI", "LOCATION": "BAHATI", "Sub_Locati": "KIMATHI(NAIROBI)", "Spatial_Re": "GPS", "Facility_T": 3, "Agency": "LA", "Latitude": -1.28773, "Longitude": 36.85865, "GlobalID": "0c822c55-9219-41ef-828a-0901a36875b7" }, "geometry": { "type": "Point", "coordinates": [ 36.85865, -1.28773 ] } },
{ "type": "Feature", "properties": { "FID_1": 1564, "Facility_N": 36, "F_NAME": "HURUMA LIONS CLINIC", "HMIS": 2678, "Province": "NAIROBI", "District": "NAIROBI", "Division": "CENTRAL", "LOCATION": "MATHARE", "Sub_Locati": "MLANGO KUBWA", "Spatial_Re": "DISTRICT ESTIMATES", "Facility_T": 3, "Agency": "NGO", "Latitude": -1.26111, "Longitude": 36.85214, "GlobalID": "7c6fc818-92a3-4c41-a284-b58e805efb5b" }, "geometry": { "type": "Point", "coordinates": [ 36.85214, -1.26111 ] } },
{ "type": "Feature", "properties": { "FID_1": 1567, "Facility_N": 39, "F_NAME": "INDUSTRIAL AREA LUNGA\/L DISP", "HMIS": 80, "Province": "NAIROBI", "District": "NAIROBI", "Division": "MAKADARA", "LOCATION": "VIWANDANI", "Sub_Locati": "VIWANDANI", "Spatial_Re": "GPS", "Facility_T": 4, "Agency": "LA", "Latitude": -1.30783, "Longitude": 36.86157, "GlobalID": "755dd314-b377-42a4-9ccf-61c7981f5138" }, "geometry": { "type": "Point", "coordinates": [ 36.86157, -1.30783 ] } },
{ "type": "Feature", "properties": { "FID_1": 1570, "Facility_N": 40, "F_NAME": "INDUSTRIAL AREA PRISON HEALTH CENTRE", "HMIS": 0, "Province": "NAIROBI", "District": "NAIROBI", "Division": "MAKADARA", "LOCATION": "VIWANDANI", "Sub_Locati": "LANDI MAWE", "Spatial_Re": "GPS", "Facility_T": 3, "Agency": "MOH", "Latitude": -1.29805, "Longitude": 36.83661, "GlobalID": "4c2ca3cc-5bdd-4cf3-b7e7-aad203d3fce4" }, "geometry": { "type": "Point", "coordinates": [ 36.83661, -1.29805 ] } },
{ "type": "Feature", "properties": { "FID_1": 1573, "Facility_N": 41, "F_NAME": "INOCULATION CENTRE DISP", "HMIS": 81, "Province": "NAIROBI", "District": "NAIROBI", "Division": "CENTRAL", "LOCATION": "STAREHE", "Sub_Locati": "CITY SQUARE", "Spatial_Re": "GPS", "Facility_T": 4, "Agency": "LA", "Latitude": -1.28358, "Longitude": 36.82171, "GlobalID": "b93988e1-d8b4-43d3-ac99-0aa92b26bdd4" }, "geometry": { "type": "Point", "coordinates": [ 36.82171, -1.28358 ] } },
{ "type": "Feature", "properties": { "FID_1": 1576, "Facility_N": 42, "F_NAME": "JAMIA CRESCENT MEDICAL AID DISP", "HMIS": 21, "Province": "NAIROBI", "District": "NAIROBI", "Division": "CENTRAL", "LOCATION": "STAREHE", "Sub_Locati": "CITY CENTRE", "Spatial_Re": "WAYUMBA", "Facility_T": 4, "Agency": "MISS", "Latitude": -1.27776, "Longitude": 36.8205, "GlobalID": "f9889468-8052-4438-9dfc-b63f46bd4d17" }, "geometry": { "type": "Point", "coordinates": [ 36.8205, -1.27776 ] } },
{ "type": "Feature", "properties": { "FID_1": 1579, "Facility_N": 43, "F_NAME": "JERICHO HEALTH CENTRE", "HMIS": 2630, "Province": "NAIROBI", "District": "NAIROBI", "Division": "MAKADARA", "LOCATION": "MAKADARA", "Sub_Locati": "LUMUMBA", "Spatial_Re": "GPS", "Facility_T": 3, "Agency": "LA", "Latitude": -1.28896, "Longitude": 36.87117, "GlobalID": "ae7616c7-cbab-4155-b99b-ba5b22cadd46" }, "geometry": { "type": "Point", "coordinates": [ 36.87117, -1.28896 ] } },
{ "type": "Feature", "properties": { "FID_1": 1581, "Facility_N": 44, "F_NAME": "JERUSALEM HEALTH CENTRE", "HMIS": 22, "Province": "NAIROBI", "District": "NAIROBI", "Division": "PUMWANI", "LOCATION": "BAHATI", "Sub_Locati": "UHURU", "Spatial_Re": "GPS", "Facility_T": 3, "Agency": "LA", "Latitude": -1.28258, "Longitude": 36.86548, "GlobalID": "b806817c-4df8-4c14-ac39-b25cc5487cfa" }, "geometry": { "type": "Point", "coordinates": [ 36.86548, -1.28258 ] } },
{ "type": "Feature", "properties": { "FID_1": 1584, "Facility_N": 46, "F_NAME": "KABETE TECHNICAL AND TRADE DISP", "HMIS": 89, "Province": "NAIROBI", "District": "NAIROBI", "Division": "WESTLANDS", "LOCATION": "KITISURU", "Sub_Locati": "LORESHO", "Spatial_Re": "GPS", "Facility_T": 4, "Agency": "MOH", "Latitude": -1.26114, "Longitude": 36.72543, "GlobalID": "81e19a17-198a-4deb-ac01-838b2df80d78" }, "geometry": { "type": "Point", "coordinates": [ 36.72543, -1.26114 ] } },
{ "type": "Feature", "properties": { "FID_1": 1587, "Facility_N": 48, "F_NAME": "KAHAWA HEALTH CENTRE", "HMIS": 24, "Province": "NAIROBI", "District": "NAIROBI", "Division": "KASARANI", "LOCATION": "KAHAWA", "Sub_Locati": "KONGO SOWETO", "Spatial_Re": "GPS", "Facility_T": 3, "Agency": "LA", "Latitude": -1.18716, "Longitude": 36.91278, "GlobalID": "c206d573-00fe-4415-9f33-d5cccd0340e9" }, "geometry": { "type": "Point", "coordinates": [ 36.91278, -1.18716 ] } },
{ "type": "Feature", "properties": { "FID_1": 1590, "Facility_N": 49, "F_NAME": "KALOLENI SHC", "HMIS": 184, "Province": "NAIROBI", "District": "NAIROBI", "Division": "MAKADARA", "LOCATION": "MAKONGENI", "Sub_Locati": "KALOLENI(NAIROBI)", "Spatial_Re": "GPS", "Facility_T": 3, "Agency": "LA", "Latitude": -1.29282, "Longitude": 36.84534, "GlobalID": "055a4cd8-b730-4e87-b0d2-af63145bc183" }, "geometry": { "type": "Point", "coordinates": [ 36.84534, -1.29282 ] } },
{ "type": "Feature", "properties": { "FID_1": 1593, "Facility_N": 50, "F_NAME": "KAMITI HEALTH CENTRE", "HMIS": 136, "Province": "NAIROBI", "District": "NAIROBI", "Division": "KASARANI", "LOCATION": "KAHAWA", "Sub_Locati": "KAHAWA WEST\/JUJA K", "Spatial_Re": "GPS", "Facility_T": 3, "Agency": "MOH", "Latitude": -1.1761, "Longitude": 36.89342, "GlobalID": "7a626339-1e51-4631-989c-29c42e28bf5c" }, "geometry": { "type": "Point", "coordinates": [ 36.89342, -1.1761 ] } },
{ "type": "Feature", "properties": { "FID_1": 1596, "Facility_N": 51, "F_NAME": "KANGEMI HEALTH CENTRE", "HMIS": 137, "Province": "NAIROBI", "District": "NAIROBI", "Division": "WESTLANDS", "LOCATION": "KANGEMI", "Sub_Locati": "KANGEMI", "Spatial_Re": "GPS", "Facility_T": 3, "Agency": "LA", "Latitude": -1.26461, "Longitude": 36.74933, "GlobalID": "b048ccfa-cabb-4f65-9299-bc30c6366e14" }, "geometry": { "type": "Point", "coordinates": [ 36.74933, -1.26461 ] } },
{ "type": "Feature", "properties": { "FID_1": 1599, "Facility_N": 52, "F_NAME": "KAREN HEALTH CENTRE", "HMIS": 138, "Province": "NAIROBI", "District": "NAIROBI", "Division": "KIBERA", "LOCATION": "KAREN", "Sub_Locati": "LENANA", "Spatial_Re": "GPS", "Facility_T": 3, "Agency": "LA", "Latitude": -1.32211, "Longitude": 36.70876, "GlobalID": "cb866df7-1d0d-4e7f-aee5-e7a01cad75e8" }, "geometry": { "type": "Point", "coordinates": [ 36.70876, -1.32211 ] } },
{ "type": "Feature", "properties": { "FID_1": 1602, "Facility_N": 53, "F_NAME": "KARIOBANGI CATHOLIC DISP", "HMIS": 0, "Province": "NAIROBI", "District": "NAIROBI", "Division": "EMBAKASI", "LOCATION": "KARIOBANGI SOUTH", "Sub_Locati": "KARIOBANGI SOUTH", "Spatial_Re": "DISTRICT ESTIMATES", "Facility_T": 4, "Agency": "MISS", "Latitude": -1.26314, "Longitude": 36.88214, "GlobalID": "bfb58eb3-f4e6-4fb6-a793-3ba69eed48bb" }, "geometry": { "type": "Point", "coordinates": [ 36.88214, -1.26314 ] } },
{ "type": "Feature", "properties": { "FID_1": 1605, "Facility_N": 54, "F_NAME": "KARIOBANGI CHESIRE HOME DISP", "HMIS": 90, "Province": "NAIROBI", "District": "NAIROBI", "Division": "KASARANI", "LOCATION": "KARIOBANGI", "Sub_Locati": "KARIOBANGI NORTH", "Spatial_Re": "DISTRICT ESTIMATES", "Facility_T": 4, "Agency": "MISS", "Latitude": -1.25123, "Longitude": 36.88111, "GlobalID": "a2abca49-af85-4757-8173-f729a00ce56a" }, "geometry": { "type": "Point", "coordinates": [ 36.88111, -1.25123 ] } },
{ "type": "Feature", "properties": { "FID_1": 1608, "Facility_N": 55, "F_NAME": "KARIOBANGI HEALTH CENTRE", "HMIS": 139, "Province": "NAIROBI", "District": "NAIROBI", "Division": "KASARANI", "LOCATION": "KARIOBANGI", "Sub_Locati": "KARIOBANGI NORTH", "Spatial_Re": "GPS", "Facility_T": 3, "Agency": "LA", "Latitude": -1.25174, "Longitude": 36.87978, "GlobalID": "5dd20643-48c7-49a1-bdb2-65930185e15d" }, "geometry": { "type": "Point", "coordinates": [ 36.87978, -1.25174 ] } },
{ "type": "Feature", "properties": { "FID_1": 1611, "Facility_N": 56, "F_NAME": "KARIOBANGI MCH \/ FP DISP", "HMIS": 2634, "Province": "NAIROBI", "District": "NAIROBI", "Division": "KASARANI", "LOCATION": "KARIOBANGI", "Sub_Locati": "KARIOBANGI NORTH", "Spatial_Re": "GPS", "Facility_T": 4, "Agency": "LA", "Latitude": -1.25174, "Longitude": 36.87978, "GlobalID": "00b5b2d6-a1b1-4274-ba87-12ff7fa1071c" }, "geometry": { "type": "Point", "coordinates": [ 36.87978, -1.25174 ] } },
{ "type": "Feature", "properties": { "FID_1": 1614, "Facility_N": 57, "F_NAME": "KARIOKOR DISP", "HMIS": 26, "Province": "NAIROBI", "District": "NAIROBI", "Division": "CENTRAL", "LOCATION": "KARIOKOR", "Sub_Locati": "ZIWANI\/KARIOKOR", "Spatial_Re": "GPS", "Facility_T": 4, "Agency": "LA", "Latitude": -1.2763, "Longitude": 36.83552, "GlobalID": "54b8c6c2-0516-4525-b1cd-59143c341093" }, "geometry": { "type": "Point", "coordinates": [ 36.83552, -1.2763 ] } },
{ "type": "Feature", "properties": { "FID_1": 1618, "Facility_N": 58, "F_NAME": "KASARANI SHC", "HMIS": 185, "Province": "NAIROBI", "District": "NAIROBI", "Division": "KASARANI", "LOCATION": "KASARANI", "Sub_Locati": "KASARANI", "Spatial_Re": "GPS", "Facility_T": 3, "Agency": "LA", "Latitude": -1.21821, "Longitude": 36.90139, "GlobalID": "d4bd7391-963d-4ff2-b22f-34f389f509e7" }, "geometry": { "type": "Point", "coordinates": [ 36.90139, -1.21821 ] } },
{ "type": "Feature", "properties": { "FID_1": 1620, "Facility_N": 61, "F_NAME": "KAWANGWARE HEALTH CENTRE", "HMIS": 2635, "Province": "NAIROBI", "District": "NAIROBI", "Division": "DAGORETTI", "LOCATION": "KAWANGWARE", "Sub_Locati": "KAWANGWARE", "Spatial_Re": "GPS", "Facility_T": 3, "Agency": "LA", "Latitude": -1.28405, "Longitude": 36.74052, "GlobalID": "f572aede-5359-41f9-95bb-aa9325b629d7" }, "geometry": { "type": "Point", "coordinates": [ 36.74052, -1.28405 ] } },
{ "type": "Feature", "properties": { "FID_1": 1623, "Facility_N": 62, "F_NAME": "KAYOLE HEALTH CENTRE", "HMIS": 2636, "Province": "NAIROBI", "District": "NAIROBI", "Division": "EMBAKASI", "LOCATION": "KAYOLE", "Sub_Locati": "KAYOLE", "Spatial_Re": "GPS", "Facility_T": 3, "Agency": "MOH", "Latitude": -1.26649, "Longitude": 36.91668, "GlobalID": "5593a8fb-db32-4b4b-855b-dd692cbc9a3e" }, "geometry": { "type": "Point", "coordinates": [ 36.91668, -1.26649 ] } },
{ "type": "Feature", "properties": { "FID_1": 1626, "Facility_N": 63, "F_NAME": "KENYATTA NATIONAL HOSPITAL", "HMIS": 157, "Province": "NAIROBI", "District": "NAIROBI", "Division": "DAGORETTI", "LOCATION": "KENYATTA\/GOLF COURSE", "Sub_Locati": "KENYATTA", "Spatial_Re": "GPS", "Facility_T": 2, "Agency": "MOH", "Latitude": -1.300876, "Longitude": 36.806388, "GlobalID": "4f4662ee-d6e5-4ef2-848c-fe1148756ef1" }, "geometry": { "type": "Point", "coordinates": [ 36.806388, -1.300876 ] } },
{ "type": "Feature", "properties": { "FID_1": 1629, "Facility_N": 67, "F_NAME": "KICC DISP", "HMIS": 134, "Province": "NAIROBI", "District": "NAIROBI", "Division": "CENTRAL", "LOCATION": "STAREHE", "Sub_Locati": "CITY SQUARE", "Spatial_Re": "GPS", "Facility_T": 4, "Agency": "MOH", "Latitude": -1.28704, "Longitude": 36.8228, "GlobalID": "c6f554fe-7829-4835-b485-acff68019c7c" }, "geometry": { "type": "Point", "coordinates": [ 36.8228, -1.28704 ] } },
{ "type": "Feature", "properties": { "FID_1": 1632, "Facility_N": 68, "F_NAME": "LADY NORTH HEALTH CENTRE", "HMIS": 2647, "Province": "NAIROBI", "District": "NAIROBI", "Division": "WESTLANDS", "LOCATION": "KILIMANI", "Sub_Locati": "KILIMANI(NAIROBI)", "Spatial_Re": "GPS", "Facility_T": 3, "Agency": "MOH", "Latitude": -1.28551, "Longitude": 36.81064, "GlobalID": "94aa8735-f8e5-4e1e-bea3-a4cb0770f899" }, "geometry": { "type": "Point", "coordinates": [ 36.81064, -1.28551 ] } },
{ "type": "Feature", "properties": { "FID_1": 1635, "Facility_N": 69, "F_NAME": "LAGOS HC", "HMIS": 28, "Province": "NAIROBI", "District": "NAIROBI", "Division": "CENTRAL", "LOCATION": "STAREHE", "Sub_Locati": "CITY CENTRE", "Spatial_Re": "GPS", "Facility_T": 3, "Agency": "LA", "Latitude": -1.28012, "Longitude": 36.8231, "GlobalID": "57502b98-9630-4113-9aa2-12b334b59add" }, "geometry": { "type": "Point", "coordinates": [ 36.8231, -1.28012 ] } },
{ "type": "Feature", "properties": { "FID_1": 1638, "Facility_N": 70, "F_NAME": "LANGATA HEALTH CENTRE", "HMIS": 141, "Province": "NAIROBI", "District": "NAIROBI", "Division": "KIBERA", "LOCATION": "MUGUMOINI", "Sub_Locati": "BOMAS", "Spatial_Re": "GPS", "Facility_T": 3, "Agency": "MOH", "Latitude": -1.31814, "Longitude": 36.7783, "GlobalID": "9c7dc6f8-91cd-42ed-bee1-d7320cee4d6e" }, "geometry": { "type": "Point", "coordinates": [ 36.7783, -1.31814 ] } },
{ "type": "Feature", "properties": { "FID_1": 1641, "Facility_N": 73, "F_NAME": "LITTLE SISTERS OF ST FRANCIS", "HMIS": 3636, "Province": "NAIROBI", "District": "NAIROBI", "Division": "KASARANI", "LOCATION": "KASARANI", "Sub_Locati": "MWIKI", "Spatial_Re": "DISTRICT ESTIMATES", "Facility_T": 4, "Agency": "MISS", "Latitude": -1.23415, "Longitude": 36.92214, "GlobalID": "4eae910c-15d7-4b27-8c2d-ee249115147a" }, "geometry": { "type": "Point", "coordinates": [ 36.92214, -1.23415 ] } },
{ "type": "Feature", "properties": { "FID_1": 1644, "Facility_N": 74, "F_NAME": "LOCO HEALTH CENTRE", "HMIS": 98, "Province": "NAIROBI", "District": "NAIROBI", "Division": "MAKADARA", "LOCATION": "VIWANDANI", "Sub_Locati": "LANDI MAWE", "Spatial_Re": "GPS", "Facility_T": 3, "Agency": "MOH", "Latitude": -1.29131, "Longitude": 36.82667, "GlobalID": "27ac7d43-d782-42cc-9552-79e3aba3ed55" }, "geometry": { "type": "Point", "coordinates": [ 36.82667, -1.29131 ] } },
{ "type": "Feature", "properties": { "FID_1": 1648, "Facility_N": 75, "F_NAME": "LOWER KABETE SHC", "HMIS": 186, "Province": "NAIROBI", "District": "NAIROBI", "Division": "WESTLANDS", "LOCATION": "KITISURU", "Sub_Locati": "KITISURU", "Spatial_Re": "GPS", "Facility_T": 3, "Agency": "LA", "Latitude": -1.23768, "Longitude": 36.7447, "GlobalID": "5ae6a4a5-202a-42ac-ae84-bd757fc9ceee" }, "geometry": { "type": "Point", "coordinates": [ 36.7447, -1.23768 ] } },
{ "type": "Feature", "properties": { "FID_1": 1651, "Facility_N": 76, "F_NAME": "LUNGA LUNGA HEALTH CENTRE", "HMIS": 3351, "Province": "NAIROBI", "District": "NAIROBI", "Division": "MAKADARA", "LOCATION": "VIWANDANI", "Sub_Locati": "VIWANDANI", "Spatial_Re": "GPS", "Facility_T": 3, "Agency": "LA", "Latitude": -1.30783, "Longitude": 36.86157, "GlobalID": "63ebeabf-c21c-4b42-8781-4248467df13c" }, "geometry": { "type": "Point", "coordinates": [ 36.86157, -1.30783 ] } },
{ "type": "Feature", "properties": { "FID_1": 1654, "Facility_N": 77, "F_NAME": "MAKADARA HC", "HMIS": 32, "Province": "NAIROBI", "District": "NAIROBI", "Division": "MAKADARA", "LOCATION": "MAKADARA", "Sub_Locati": "HAMZA", "Spatial_Re": "GPS", "Facility_T": 3, "Agency": "LA", "Latitude": -1.29431, "Longitude": 36.87226, "GlobalID": "b7d058d6-cce7-4ec1-9183-5b5df0b825da" }, "geometry": { "type": "Point", "coordinates": [ 36.87226, -1.29431 ] } },
{ "type": "Feature", "properties": { "FID_1": 1657, "Facility_N": 79, "F_NAME": "MAKONGENI HC", "HMIS": 33, "Province": "NAIROBI", "District": "NAIROBI", "Division": "MAKADARA", "LOCATION": "MAKONGENI", "Sub_Locati": "MAKONGENI(NAIROBI)", "Spatial_Re": "GPS", "Facility_T": 3, "Agency": "LA", "Latitude": -1.29394, "Longitude": 36.84754, "GlobalID": "8586964f-a125-4a9e-a365-f1ed357606a0" }, "geometry": { "type": "Point", "coordinates": [ 36.84754, -1.29394 ] } },
{ "type": "Feature", "properties": { "FID_1": 1660, "Facility_N": 82, "F_NAME": "MARINGO HC", "HMIS": 34, "Province": "NAIROBI", "District": "NAIROBI", "Division": "MAKADARA", "LOCATION": "MARINGO", "Sub_Locati": "OFAFA MARINGO", "Spatial_Re": "GPS", "Facility_T": 3, "Agency": "LA", "Latitude": -1.28894, "Longitude": 36.86451, "GlobalID": "652490f9-80b5-4acf-ad8f-7983ad13bb6d" }, "geometry": { "type": "Point", "coordinates": [ 36.86451, -1.28894 ] } },
{ "type": "Feature", "properties": { "FID_1": 1664, "Facility_N": 84, "F_NAME": "MATER MISERICORDIAE HOSPITAL", "HMIS": 159, "Province": "NAIROBI", "District": "NAIROBI", "Division": "MAKADARA", "LOCATION": "MUKURU NYAYO", "Sub_Locati": "NAIROBI SOUTH", "Spatial_Re": "WAYUMBA", "Facility_T": 1, "Agency": "MISS", "Latitude": -1.305393, "Longitude": 36.833478, "GlobalID": "226ce1d1-4c7b-44fa-90c5-8f431bf8e4cd" }, "geometry": { "type": "Point", "coordinates": [ 36.833478, -1.305393 ] } },
{ "type": "Feature", "properties": { "FID_1": 1666, "Facility_N": 85, "F_NAME": "MATHARE NORTH HEALTH CENTRE", "HMIS": 2656, "Province": "NAIROBI", "District": "NAIROBI", "Division": "KASARANI", "LOCATION": "RUARAKA", "Sub_Locati": "UTALII", "Spatial_Re": "GPS", "Facility_T": 3, "Agency": "LA", "Latitude": -1.25323, "Longitude": 36.86485, "GlobalID": "cad1d7d5-7111-4798-840b-84e5ea582f81" }, "geometry": { "type": "Point", "coordinates": [ 36.86485, -1.25323 ] } },
{ "type": "Feature", "properties": { "FID_1": 1670, "Facility_N": 87, "F_NAME": "MATHARI MENTAL HOSPITAL", "HMIS": 160, "Province": "NAIROBI", "District": "NAIROBI", "Division": "CENTRAL", "LOCATION": "MATHARE", "Sub_Locati": "MATHARE", "Spatial_Re": "GPS", "Facility_T": 1, "Agency": "MOH", "Latitude": -1.259489, "Longitude": 36.844302, "GlobalID": "ba86303a-85e7-44bb-bc1b-ff65e7e8ed74" }, "geometry": { "type": "Point", "coordinates": [ 36.844302, -1.259489 ] } },
{ "type": "Feature", "properties": { "FID_1": 1673, "Facility_N": 88, "F_NAME": "MBAGATHI DISTRICT HOSPITAL", "HMIS": 154, "Province": "NAIROBI", "District": "NAIROBI", "Division": "DAGORETTI", "LOCATION": "KENYATTA\/GOLF COURSE", "Sub_Locati": "GOLF COURSE", "Spatial_Re": "GPS", "Facility_T": 1, "Agency": "MOH", "Latitude": -1.307925, "Longitude": 36.802242, "GlobalID": "ebeae013-8ffd-482a-8f38-37bb5909575c" }, "geometry": { "type": "Point", "coordinates": [ 36.802242, -1.307925 ] } },
{ "type": "Feature", "properties": { "FID_1": 1676, "Facility_N": 92, "F_NAME": "MUTHURWA DISP", "HMIS": 38, "Province": "NAIROBI", "District": "NAIROBI", "Division": "CENTRAL", "LOCATION": "STAREHE", "Sub_Locati": "CITY CENTRE", "Spatial_Re": "GPS", "Facility_T": 4, "Agency": "LA", "Latitude": -1.2834, "Longitude": 36.8332, "GlobalID": "bf39c2f6-eea7-4d48-a881-4516ffe2196c" }, "geometry": { "type": "Point", "coordinates": [ 36.8332, -1.2834 ] } },
{ "type": "Feature", "properties": { "FID_1": 1679, "Facility_N": 94, "F_NAME": "NAIROBI SOUTH B HEALTH CENTRE", "HMIS": 39, "Province": "NAIROBI", "District": "NAIROBI", "Division": "MAKADARA", "LOCATION": "MUKURU NYAYO", "Sub_Locati": "NAIROBI SOUTH", "Spatial_Re": "GPS", "Facility_T": 3, "Agency": "MOH", "Latitude": -1.309483, "Longitude": 36.836938, "GlobalID": "9d12b7bb-6b48-4e93-8e7a-970e806c2da5" }, "geometry": { "type": "Point", "coordinates": [ 36.836938, -1.309483 ] } },
{ "type": "Feature", "properties": { "FID_1": 1682, "Facility_N": 95, "F_NAME": "NAIROBI WEST SISTERS DISP", "HMIS": 3350, "Province": "NAIROBI", "District": "NAIROBI", "Division": "KIBERA", "LOCATION": "NAIROBI WEST", "Sub_Locati": "NAIROBI WEST", "Spatial_Re": "DISTRICT ESTIMATES", "Facility_T": 4, "Agency": "MISS", "Latitude": -1.3101, "Longitude": 36.81121, "GlobalID": "b673dcec-b40a-47c7-9026-2cc1ae30c8f9" }, "geometry": { "type": "Point", "coordinates": [ 36.81121, -1.3101 ] } },
{ "type": "Feature", "properties": { "FID_1": 1684, "Facility_N": 96, "F_NAME": "NGAIRA AVENUE DISP", "HMIS": 2670, "Province": "NAIROBI", "District": "NAIROBI", "Division": "CENTRAL", "LOCATION": "STAREHE", "Sub_Locati": "CITY SQUARE", "Spatial_Re": "GPS", "Facility_T": 4, "Agency": "LA", "Latitude": -1.28894, "Longitude": 36.82251, "GlobalID": "b98c1d03-dfea-480d-9eaa-a92600fac04d" }, "geometry": { "type": "Point", "coordinates": [ 36.82251, -1.28894 ] } },
{ "type": "Feature", "properties": { "FID_1": 1687, "Facility_N": 97, "F_NAME": "NGARA HEALTH CENTRE", "HMIS": 143, "Province": "NAIROBI", "District": "NAIROBI", "Division": "CENTRAL", "LOCATION": "NGARA", "Sub_Locati": "NGARA EAST", "Spatial_Re": "GPS", "Facility_T": 3, "Agency": "LA", "Latitude": -1.27077, "Longitude": 36.83046, "GlobalID": "a52210d9-c35d-4d10-b1ff-e8b956154154" }, "geometry": { "type": "Point", "coordinates": [ 36.83046, -1.27077 ] } },
{ "type": "Feature", "properties": { "FID_1": 1690, "Facility_N": 98, "F_NAME": "NGONG ROAD SHC", "HMIS": 187, "Province": "NAIROBI", "District": "NAIROBI", "Division": "DAGORETTI", "LOCATION": "KENYATTA\/GOLF COURSE", "Sub_Locati": "WOODLEY", "Spatial_Re": "GPS", "Facility_T": 3, "Agency": "LA", "Latitude": -1.29896, "Longitude": 36.7576, "GlobalID": "4a0d7eea-ae6d-4a0c-aef6-a8963883fb50" }, "geometry": { "type": "Point", "coordinates": [ 36.7576, -1.29896 ] } },
{ "type": "Feature", "properties": { "FID_1": 1692, "Facility_N": 99, "F_NAME": "NYS HEALTH CENTRE", "HMIS": 106, "Province": "NAIROBI", "District": "NAIROBI", "Division": "KASARANI", "LOCATION": "RUARAKA", "Sub_Locati": "UTALII", "Spatial_Re": "GPS", "Facility_T": 3, "Agency": "MOH", "Latitude": -1.24995, "Longitude": 36.86425, "GlobalID": "fe9c7d1b-b26e-40dd-88e2-c8b0e1548b9e" }, "geometry": { "type": "Point", "coordinates": [ 36.86425, -1.24995 ] } },
{ "type": "Feature", "properties": { "FID_1": 1694, "Facility_N": 100, "F_NAME": "NYS PUBLIC HEALTH", "HMIS": 4381, "Province": "NAIROBI", "District": "NAIROBI", "Division": "KASARANI", "LOCATION": "RUARAKA", "Sub_Locati": "UTALII", "Spatial_Re": "GPS", "Facility_T": 3, "Agency": "MOH", "Latitude": -1.24995, "Longitude": 36.86425, "GlobalID": "271559bd-141f-480d-b795-e4e8e34979aa" }, "geometry": { "type": "Point", "coordinates": [ 36.86425, -1.24995 ] } },
{ "type": "Feature", "properties": { "FID_1": 1696, "Facility_N": 101, "F_NAME": "OFAFA JERICHO SHC", "HMIS": 188, "Province": "NAIROBI", "District": "NAIROBI", "Division": "MAKADARA", "LOCATION": "MAKADARA", "Sub_Locati": "LUMUMBA", "Spatial_Re": "GPS", "Facility_T": 3, "Agency": "LA", "Latitude": -1.289024, "Longitude": 36.871071, "GlobalID": "04ae2469-bdc6-4432-ab29-22cdafdb6ee9" }, "geometry": { "type": "Point", "coordinates": [ 36.871071, -1.289024 ] } },
{ "type": "Feature", "properties": { "FID_1": 1697, "Facility_N": 102, "F_NAME": "OFAFA NAIROBI HC", "HMIS": 41, "Province": "NAIROBI", "District": "NAIROBI", "Division": "MAKADARA", "LOCATION": "MAKADARA", "Sub_Locati": "LUMUMBA", "Spatial_Re": "GPS", "Facility_T": 3, "Agency": "LA", "Latitude": -1.288752, "Longitude": 36.870483, "GlobalID": "1e629e3b-07cc-45ce-91e7-c185c5bbd188" }, "geometry": { "type": "Point", "coordinates": [ 36.870483, -1.288752 ] } },
{ "type": "Feature", "properties": { "FID_1": 1698, "Facility_N": 103, "F_NAME": "P & T MCH DISP", "HMIS": 110, "Province": "NAIROBI", "District": "NAIROBI", "Division": "KASARANI", "LOCATION": "RUARAKA", "Sub_Locati": "MATHARE NORTH", "Spatial_Re": "SUBLOC CENTROID", "Facility_T": 4, "Agency": "MOH", "Latitude": -1.247265, "Longitude": 36.872106, "GlobalID": "f66a5237-7ffc-42e1-8b27-2a2257e99944" }, "geometry": { "type": "Point", "coordinates": [ 36.872106, -1.247265 ] } },
{ "type": "Feature", "properties": { "FID_1": 1699, "Facility_N": 104, "F_NAME": "PANGANI HC", "HMIS": 42, "Province": "NAIROBI", "District": "NAIROBI", "Division": "CENTRAL", "LOCATION": "KARIOKOR", "Sub_Locati": "PANGANI", "Spatial_Re": "GPS", "Facility_T": 3, "Agency": "LA", "Latitude": -1.26741, "Longitude": 36.83815, "GlobalID": "a7435fa1-7591-45b7-b709-c88a915dc20b" }, "geometry": { "type": "Point", "coordinates": [ 36.83815, -1.26741 ] } },
{ "type": "Feature", "properties": { "FID_1": 1700, "Facility_N": 106, "F_NAME": "PROVIDE INTERNATIONAL DISP", "HMIS": 3590, "Province": "NAIROBI", "District": "NAIROBI", "Division": "EMBAKASI", "LOCATION": "KAYOLE", "Sub_Locati": "KAYOLE", "Spatial_Re": "WAYUMBA", "Facility_T": 4, "Agency": "NGO", "Latitude": -1.268017, "Longitude": 36.911501, "GlobalID": "fa6dea43-b267-4b3d-9638-262c34bc76ca" }, "geometry": { "type": "Point", "coordinates": [ 36.911501, -1.268017 ] } }
]
}
